business_id,name,address,city,state,postal_code,latitude,longitude,stars,review_count
guvNNiQurBpsjTxi96zaOw,Domino's Pizza,10396 W Fairview Ave,Boise,ID,83704,43.6201786,-116.311617,2,31
NZ4BGhQBVw_9MSuTqG4YRQ,Ritz Diner,8000 Roosevelt Blvd,Philadelphia,PA,19152,40.0572052,-75.0471055,3,97
l4vVMOJkNSM9MaOBQ2Le5A,Little Caesars Pizza,10683 Big Bend Rd,Riverview,FL,33579,27.7903862,-82.3316879,2.5,16
CCnuyfb1nd-doEpkj0OoHg,Noble Pie Parlor - Downtown,239 W 2nd St,Reno,NV,89501,39.5263186294,-119.8170070699,4,628
-dSJmP8UtK8X3K5QWgtW8w,Corona Village Mexican Restaurant,21 E Fairview Ave,Meridian,ID,83642,43.6188783,-116.3928784,3.5,67
ndrcxVKd-z_M-GiG5w8kYA,C & K Barbecue,4390 Jennings Station Rd,Saint Louis,MO,63121,38.6994258,-90.2713138,3.5,33
gtlEuByPIBW1HLA89D22mw,Rose Cafe & Catering,38426 5th Ave,Zephyrhills,FL,33542,28.2340156,-82.180467,3.5,8
9Ibl-ZcplccEbt6RwGbWmQ,The Century House Restaurant,2790 Bethlehem Pike,Hatfield,PA,19440,40.300487,-75.2881218,3.5,20
Vwipam-onjgtzGAUmRdjgg,china 1,12004 Indian Rocks Rd,Largo,FL,33774,27.8816613,-82.8338739,3,20
ed54mXDm7gXqWUbfKxi4dw,Domino's Pizza,11649 Jasper Avenue,Edmonton,AB,T5K 0M9,53.540734,-113.522714,3,9
O_wuhNjqLiWvRcYfbHw7Ag,Sushi Village,3535 Severn Ave,Metairie,LA,70002,30.013678,-90.158498,3.5,124
02jZC7oX0SbWXVFboNwFGA,Jimmy John's,340 W Dekalb Pike,King of Prussia,PA,19406,40.092678,-75.3721422,3.5,38
_Ap0kXpUPKxt8bcHYjEvpQ,Hot Spot Restaurant,73 Old Dublin Pike,Doylestown,PA,18901,40.3245214,-75.1323732,4.5,34
smkZq4G1AOm4V6p3id5sww,The Hungry Greek,12950 Race Track Rd,Tampa,FL,33626,28.0694857,-82.6338282,4.5,142
Elc0nL8VjIKqAMccjArvPw,Petro's Chili & Chips,1000 Rivergate Pkwy,Goodlettsville,TN,37072,36.3026299,-86.6975705,5,5
PlEnI02D0iKpMt6gS7h_HQ,Sun King Brewing,"7800 Col H Weir Cook Memorial Dr, Concourse B",Indianapolis,IN,46241,39.7148812,-86.2974891,3,22
-J0tPzkwPnyulSBE_s863Q,Bel Mar Bar And Grill,3501 S Manhattan Ave,Tampa,FL,33629,27.9113611,-82.5182322,4.5,81
GAGvDs8lW5wkD5Fwt8C3sg,Don Pancho,6803 N Armenia Ave,Tampa,FL,33604,28.009897,-82.484013,4.5,16
LBAFjWx6qIvFkHxRx5ksLg,QDOBA Mexican Eats,"6905 S Emerson Ave, Ste A",Indianapolis,IN,46237,39.667361,-86.0818253,2.5,54
IxHaNMUt3mRB1qHvFY5qqQ,The Melting Pot,294 Lamp And Lantern Vlg,Chesterfield,MO,63017,38.6247541,-90.516981,3.5,145
v5HkVr-QDnOprbmo22weQQ,Dickey's Barbecue Pit,5250 E 22nd St,Tucson,AZ,85711,32.2066344748,-110.879938954,3.5,25
M7QK0xvLZFd36igjpnvG7A,Jersey Mike's Subs,"10725 N Michigan Rd, Ste A",Zionsville,IN,46077,39.9430725,-86.2370925,3,23
sM25kuQOInBfPrcQBmlLqQ,Pizza Hut,410 St. Albert Trail,St. Albert,AB,T8N 3X6,53.645241,-113.627754,1.5,7
RPszRvgRQR5q7WMGhVNLCA,Wawa,1601 Valley Forge Rd,Lansdale,PA,19446,40.2284697,-75.3142052,3.5,22
l5RR424DtNZg6mDcvrAixw,Lakeview Burgers and Seafood,872 Harrison Ave,New Orleans,LA,70124,30.0039867,-90.1042078,4,110
NRcVU0DW2OGaXrmXpBtLzg,Cafe Nhu Quynh,5520 Whitaker Ave,Philadelphia,PA,19124,40.0355248,-75.1003312,3.5,13
PJjkH_VZeQwxEJvlQ-v7wA,Pho 75,1122 Washington Ave,Philadelphia,PA,19147,39.9372212861,-75.1628434626,4.5,529
f2YXWEafk6m0fiHZjp8Y8w,La Trattoria Italian Restaurant,201 N Madison Ave,Greenwood,IN,46142,39.6178229,-86.1107231,4,130
DyepNaNO65AtZYJwTD51xg,Great Garden,3623 Commercial Dr,Indianapolis,IN,46222,39.8190847,-86.22826,4.5,5
EKBDN90FwKHr6F7_zzSCZA,Cornflower Coffee & Tea,4530 Olive St,St. Louis,MO,63108,38.6485467,-90.2561212,4.5,44
C7ANpBbkQq4ZICSbZiiHlw,Tokyo Sushi Cafe,10500 Ulmerton Rd,Largo,FL,33771,27.8929345,-82.7848052,3,11
6F_pMpmU4WDycwY8B8T9Fg,Italian Bistro of Center City,211 S Broad St,Philadelphia,PA,19107,39.94898,-75.1640456,2.5,40
rhS9NZKPpgL-Xrn6ihtfsA,Waffle House,2340 Elm Hill Pike,Nashville,TN,37214,36.1538421,-86.6860554,3.5,93
cEyPNMvOehbACz_t9p2yNA,Papillon Cafe,254 N Sycamore St,Newtown,PA,18940,40.2352761,-74.9377285,3,11
SoiacX2r2mvHqIh3GgRMUw,Domino's Pizza,9799 W Florissant Ave,Saint Louis,MO,63136,38.744774,-90.279721,1.5,7
Q_L2wD7JrLq-GHVYU1dJfA,The Thirsty Turtle,"1307 Bell Rd, Ste 101",Antioch,TN,37013,36.0471839,-86.6746312,2,112
oF1UsRAffQ5c7cw-1AUvew,Ike's Coffee and Tea,3400 E Speedway Blvd,Tucson,AZ,85707,32.235694,-110.9202552,3.5,58
s5K7M7BBFDbFkvv14XwkgA,Bronze Table,111 S Independence Mall E,Philadelphia,PA,19106,39.9497563,-75.1480623,4,14
P4CSWhe3WKwTNguupAk9oA,Never Never,413 Houston St,Nashville,TN,37203,36.1431585184,-86.7657356626,4,26
h07Yfix2ynwn9fJ3proGXQ,Joey Bs,189 Concord Plz,Saint Louis,MO,63128,38.5235703611,-90.3621459838,3.5,194
TQloD2_k3J67Q1J_picgfw,Wawa,2535 Aramingo Ave,Philadelphia,PA,19125,39.9771998493,-75.1184864286,2.5,43
qppGA9vCUPfw9ngOy_R90w,Cru Cellars - Palma Ceia,2506 S MacDill Ave,Tampa,FL,33629,27.9227533,-82.4934024,4,184
7RaoxmyA1C2pXfce9Kz-DA,L & M Bakery,11 St Mihiel Dr,Delran,NJ,08075,40.0342934,-74.970239,4.5,137
TlvK0vNWea6eb9G-uzLTRA,Holiday Inn Hotel & Suites Tucson Airport-North,4550 South Palo Verde Rd,Tucson,AZ,85714,32.169961,-110.9192187,2.5,44
1fGaY2WlGv2l4as6UkMFrg,The Trestle Inn,339 N 11th St,Philadelphia,PA,19107,39.9588257,-75.1566756,4,203
gjCxTVItFxk46rCZ-YaiFA,South Coast Deli- Chapala,1436 Chapala St,Santa Barbara,CA,93101,34.425067369,-119.7091551212,4.5,340
fp_qDmPIrB2LQezynteJXA,Supreme Pizza,1303 Chester Pike,Sharon Hill,PA,19079,39.9071452,-75.2758645,2.5,20
EC20rN7JtmAPIxcw3MTzcQ,Orleans Grapevine Wine Bar & Bistro,720 Orleans Ave,New Orleans,LA,70116,29.9586121,-90.0649145,4,457
tsqyVhSaI72JTNpy4u7QGg,Champagne Cafe,21 E Chelten Ave,Philadelphia,PA,19144,40.036477,-75.1744883,2.5,23
Df-DdXqssj7ZeD8ypAF7Og,Crux Cafe,34 W Merchant St,Audubon,NJ,08106,39.8944686,-75.0710011,4.5,38
cQM0zA4pEFkIHr3uV4H-Og,Winslow Family Diner & Restaurant,491 Williamstown Rd,Sicklerville,NJ,08081,39.720716,-74.967066,3.5,42
OtIjTZZmMZwOyITdGx6UMA,Eagle River Coffee,228 E Plaza Dr,Eagle,ID,83616,43.693167,-116.351768,4,28
cpdheqMYw_dQ5hDci3ANgw,Taco Bell,6660 Manchester Road,Saint Louis,MO,63139,38.619283,-90.299832,2,21
tfhmTE3ORFmHuo7phIY-KA,Spread Peace Cafe,50 N Sierra St,Reno,NV,89501,39.5251999,-119.8140419,2.5,23
wHzYlWU7eVhSLXwwZwchJw,Boodles BBQ,10024 Gravois Rd.,Saint Louis,MO,63123,38.550494,-90.334458,3.5,29
oJOZwFnkyRWDD0f-jiRssA,Angelina's Italian Restaurant,111 E Brandon Blvd,Brandon,FL,33511,27.937384,-82.285303,1.5,7
dgugflHeynz7aDyDMYoHjQ,Pepperoncini Italian Market,101 W Eagle Rd,Havertown,PA,19083,39.9859276,-75.3138877,2,9
qI7j_4UGb3w6f9j5c7lC6Q,Mister Softee,901 E Clements Bridge Rd,Runnemede,NJ,08078,39.858601,-75.063208,4,136
XmpbEmS7PRdg5sIbGpjt7g,The Boathouse at Forest Park,6101 Government Dr,Saint Louis,MO,63110,38.6400702927,-90.2848707288,3,403
BAAo5SORNeRxBi6BAmZIhg,Wang Gang Asian Eats,2009 Zumbehl Rd.,St Charles,MO,63303,38.7820228,-90.5339956,2.5,5
wsdLoJ81iBpd4Rq56giINg,Hong Kong Chinese Restaurant,321 S Madison St,Lebanon,IL,62254,38.60133,-89.80789,5,9
eubQohkn22b4IytlVNz20g,Wishbone,210 S 13th St,Philadelphia,PA,19107,39.9484184,-75.1623776,3.5,191
uTSIeChK5LN885QFwzF_Fg,Sushi Hatsu,51 E Butler Ave,Ambler,PA,19002,40.1543365,-75.2226748,4.5,90
Ai8MnqWUCTT03knlsrDSOQ,McDonald's,10305 80th Ave.,Edmonton,AB,T6E 1T8,53.5155195,-113.4950977,1.5,11
4gz6JurOLglDSf5pH4z1kw,Waffle House,3154 Telegraph Rd,Saint Louis,MO,63125,38.4983047,-90.2996335,3.5,16
Ea9y3T9wBI6n2zVft-dxlQ,Papa Murphy's,10370 North La Canada Drive,Oro Valley,AZ,85737,32.394132,-110.9951459,4,12
XS1wPZeULZtbiP1OsuHFwQ,McDonald's,8860 St Charles Rock Rd,Saint Louis,MO,63114,38.7101659953,-90.3501449601,1.5,15
Qkiz7nFYML7sJBFPO7pNaw,The Munch Factory,6514 Congress Dr,New Orleans,LA,70126,30.0273794,-90.0387422,4.5,21
DgF4_72z6UkiGxtPnSJCfg,Rabbit Hole Cafe,800 N 2nd St,Philadelphia,PA,19123,39.9631059,-75.1411268,4.5,40
2gVxo1YubGEhfwNhNd6DAQ,Lucky Garden Chinese Seafood Restaurant,8236 Louisiana Hwy 23,Belle Chasse,LA,70037,29.857071,-89.98681,4,69
em1ozsVVj63E4SG8AGvrog,Habaneros Taco Grill,"2870 Northtowne Ln, Ste 101",Reno,NV,89512,39.5556082,-119.7818239,3,92
jsAqWUT1tbAI6WXxUg8ZSA,YWCA Corazon Cafe & Catering,525 N Bonita Ave,Tucson,AZ,85745,32.2277162,-110.987128,5,5
uqdV-d4Jo7xYmRRze73iPg,Mythos Greek Taverna,5524 Calgary Trail,Edmonton,AB,T6H 4K1,53.4924394999,-113.4981340332,4,31
BTOfPZALoWopKRym7G2XCA,Pizza Hut,1700 Veterans Metairie Blvd,Metairie,LA,70005,30.001442,-90.141573,3,14
EUpaSsIsfz5ohMGormoREg,Auntie Anne's,3000 Market St,Philadelphia,PA,19104,39.9546024,-75.1838311,2,5
u0Cv6d9FoxvKoYi8NM1D1g,Fat Louie's,132 E Red Bank Ave,Woodbury,NJ,08096,39.8439326,-75.1451663,4,98
1v7vl3gmrIE4WNiJhEDs9A,Spiro's Pasadena Produce & Deli,"6801 Gulfport Blvd S, Ste 1",South Pasadena,FL,33707,27.7585077,-82.7329939,4,34
Qi3hCb03SwNwPj_geMRQXA,McDonald's,10410 N Dale Mabry,Tampa,FL,33618,28.0450512522,-82.5053305831,2.5,35
sSEKLTDGKdvOqevbfoBbiw,Cavanaugh's Restaurant,703 N Market St,Wilmington,DE,19801,39.7428926,-75.5499367,4,24
GG-DeOjnmu4V_opx-MIfvA,The Melting Pot - New Orleans,"1820 Saint Charles Ave, Ste 120",New Orleans,LA,70130,29.9357316619,-90.0779790616,3.5,128
9DgtVYHBvzHzRuiOJdB6Tg,Lennys Grill & Subs,"102 Lumber Dr, Ste 100",Franklin,TN,37064,35.8993976911,-86.8757196436,3,21
3Vax2SswY9_5KSZoCJLyIA,Taco Bell,7329 W Waters Ave,Tampa,FL,33634,28.025578,-82.561893,2,33
gJmJnJZTRHNG8CVANvb8Yg,Pop's Dinette and Ice creamery,60 N Main St,spring city,PA,19475,40.1789266,-75.5469802,4,6
AXCHYQEXbPV_hvNXdrLWcw,Shah’s Halal,E Cass St & N Tampa St,Tampa,FL,33602,27.9511156,-82.4604304,3,13
IdY-1A1fsS76g_vH_5pwfw,Kadooks!,,Tucson,AZ,85757,32.089181,-111.1175767,5,21
oEGjLHfQHci0GgSDS361Hg,Brooklyn's Beer & Burgers,3790 E Irvington Rd,Tucson,AZ,85714,32.162738,-110.9115922,3.5,170
1ohoSG3Ry5EqjSRPzbzDww,China Ruby,2604 Campagna Dr,Chalmette,LA,70043,29.9380050536,-89.9493138189,2.5,10
kyry1DCN_kIBvkoywG_FCw,Casa 21,8401-8439 Camden St,Tampa,FL,33614,28.0262109583,-82.5149431072,2.5,15
iI9Ol4rFhhEne130nCmAHQ,Golden Bowl,3447 Lithia Pinecrest Rd,Valrico,FL,33594,27.892684,-82.241907,3.5,47
Hj_-qd7KyQPRqTWzWgsFag,World Of Beer,"300 Julia St, Ste 360",New Orleans,LA,70130,29.944423,-90.0660621,3,143
6T-hXleL9aMLf-sezBjs9Q,Panda Express,4704 Kirkwood Hwy,Wilmington,DE,19808,39.7222833,-75.6601976,2.5,18
5Gb4Mw--B1V-SAhJoF48hA,El Rey Del Taco,7853 Michigan Rd,Indianapolis,IN,46268,39.8968515536,-86.2154500186,4.5,9
pWDE_rueENu_f5HKA_AsWw,Dune Coffee Roasters - Storke,250 A Storke Rd,Goleta,CA,93117,34.4295404,-119.8692712,4,159
C3fhceUzSU-gjohPemTQTg,Philly Pinoy Filipino Grocery & Buffet,1160 E DeKalb St,King of Prussia,PA,19406,40.099437,-75.352741,3.5,22
jvmICtfGWev5D00G5lazQA,Steak ’n Shake,7230 Woodland Dr,Indianapolis,IN,46278,39.8842455,-86.2672412,1.5,67
15BlJKQfD-SLJTebWa14EQ,Roxy,345 N Virginia St,Reno,NV,89501,39.5287917032,-119.8143559121,4,570
Cc16fTxApkStrec2GSnFoQ,Wawa,1730 MacDade Blvd,Folsom,PA,19033,39.8951609078,-75.3155696172,2,9
b5hxsRw76UUXcotxlCipuQ,Los Arroyos Mexican Restaurant & Take Out,1280 Coast Village Rd,Montecito,CA,93108,34.421762,-119.6413283,3.5,353
Xjf6tgajD3-UuE1i_OkEgQ,Lincoln Square Pancake House,"8150 Oaklandon Rd, Ste 109",Indianapolis,IN,46236,39.9034929287,-85.9584391581,4.5,79
HTbEVB4v6XEOIX0nM_v54w,JJ's Restaurant,1215 S Duchesne Dr,St. Charles,MO,63301,38.78522,-90.5158,3.5,53
YBj8AbolGKBzoHUcHEeAUg,eegee's,8320 E Broadway Blvd,Tucson,AZ,85710,32.2206462089,-110.8142057221,3.5,46
5m3ND7lNNd6zo-bNQGoXhQ,Three 12 Sport Bar and Lounge,312 Market St,Philadelphia,PA,19106,39.9499452,-75.146352,2.5,33
0kMb6sceumXggycSLJlpmA,Culver's,12538 State Rd 54,Odessa,FL,33556,28.1909790039,-82.6107711792,3.5,36
1T16cC3aNYzjv-BvptidJA,Pizza Hut,"16210 State Road 54, Ste E200",Odessa,FL,33556,28.1870382378,-82.5469833612,2.5,12
bcxxBysUzzI8MlotsIG5zg,Sonny's Bistro,550 N University Blvd,Indianapolis,IN,46202,39.7752608824,-86.1758230627,3,12
p08wWg9hIsvun4l-cfuWRg,Mid City Pizza,4413 Banks St,New Orleans,LA,70119,29.974527,-90.1067328,4.5,52
eOumGNkn14oEJxQ_ksAVLA,China Chef,1069 2nd Street Pike,Richboro,PA,18954,40.217626,-75.009634,4,34
1hRWfuA-8THwYsDYgj-oIg,Holdren's Grill,6920 Market Pl Dr,Goleta,CA,93117,34.4294378,-119.870112,2.5,49
KjbIz92xVjmRvivnOjIz-g,Broadway Joe's Waffles and Eatery,1649 N Broad St,Lansdale,PA,19446,40.256006777,-75.2684551477,3.5,23
wrT5DbuM24B9ExBdSSz2_g,La Divina Gelateria,621 St Peter St,New Orleans,LA,70116,29.957871,-90.064277,3,184
oFT-uwZJdBngbBXONAjbQQ,Phan's Kitchen,10202 E Washington St,Indianapolis,IN,46229,39.7779080136,-85.9858202182,5,105
ahH0MhpSAy5QEE7yTScJWA,Plan B Bistro & Bar,1118 General  Washington Memorial Blvd,Washington Crossing,PA,18977,40.2891169241,-74.8779478232,3,11
A441iKe3GyPwzpVp1SyjyA,China 1,2014 34th St N,Saint Petersburg,FL,33713,27.790759,-82.6805128,3,19
fjcELfOkRWjMyjcn9vc2ng,Francello Pizzeria & Ristorante,3909 Marlton Pike,Pennsauken,NJ,08110,39.9381353,-75.0771073,3.5,12
_sJJWbW9hACKCR5fIhbqcg,Frog Pond,16909 Gulf Blvd,North Redington Beach,FL,33708,27.8182074,-82.8228719,4,418
BQOfGskHqMcttqf5yUlfeA,Saigon Corner,518 Oakfield Dr,Brandon,FL,33511,27.934039,-82.291602,4,18
Mzmt8AvZOExG_4h3MMlihg,The Refinery,5910 N Florida Ave,Tampa,FL,33604,28.0009363,-82.459842,4,710
LXQam7YBzDN0wfrxbcWqIQ,Don Pablo's,3824 E 82nd St,Indianapolis,IN,46240,39.909213,-86.101079,2.5,20
yt9m3VmJC7MYCFfXPVqsXw,The Pizza Wagon Catering Company,,Montgomery,PA,19454,40.2166904,-75.2537397,4.5,33
-biTJUlMpAKAzROzhbuOEw,Ragazzi Northern Italian Restaurant,7850 N Oracle Rd,Tucson,AZ,85704,32.3494482031,-110.974441655,3.5,88
Wm4oVYVs4ZjMRoWFctWHoQ,Lighthouse Doughnuts,215 Gulf Blvd,Indian Rocks Beach,FL,33785,27.8802756,-82.8501584,3.5,114
4wvKerRd-Y88IX6E5lCArQ,George's Restaurant,703 Philadelphia Pike,Wilmington,DE,19809,39.7703767,-75.5017154,3.5,19
CDXx7U4zezi0al3o8wi94g,Pitman Bakery,130 S Broadway,Pitman,NJ,08071,39.7311718,-75.1296315,4.5,10
-QRcr42MLqbSbAzXstD_WQ,Waffle House,315 Wolverine Trl,Smyrna,TN,37167,35.982952,-86.556163,2.5,7
tuKYmeiSkAURPQnRDCLBxg,Rivera Taco Express,243 Christiana Rd,New Castle,DE,19720,39.6630528,-75.6327879,4.5,42
RPf6pe_g6mkYDD6yP95rHA,KFC,162 Los Altos Pkwy,Sparks,NV,89436,39.5844901809,-119.7420465164,2,39
BVF9gWOAItS-781FlzGA_w,Tango Grill Nashville,"4930 Linbar Dr, Ste 102",Nashville,TN,37211,36.0829465,-86.7023219,5,10
_swrAjNgk60HIGLVzHiqmA,Khao Kaeng by Empty Bowl Gourmet Noodle Bar,"1187 Coast Village Rd, Ste 9",Montecito,CA,93108,34.4207816,-119.6449207,4.5,51
ICYYwP4UkgfKdm-2WUeuFA,Mil-Lee's Luv-Inn,75 S Main St,Yardley,PA,19067,40.2406389,-74.8366858,4,83
vM4NTqp7akWhNVxZglPTxQ,The Chile Burrito,162 4th Ave N,Nashville,TN,37219,36.1634018,-86.7783584,3.5,42
9gTn79AUX_U7bQLcSLOyAw,Genghis Grill,"1050 Glenbrook Way, Ste 320",Hendersonville,TN,37075,36.331998,-86.625813,3,51
owMvBvgacX61VhLeMDF7ZQ,Ravello Woodfire Pizza,117 Sharptown Auburn Rd,Woodstown,NJ,08098,39.6745348,-75.3669673,5,9
7fuyFmESXQYir9AtweuD8w,Wah Kitchen,"2401 Veterans Memorial Blvd, Ste 4",Kenner,LA,70062,30.005606,-90.235224,4.5,96
4L7dHzx3QWJB4v2bDN17SQ,Aloha To Go- Hale,5903 Seminole Blvd,Seminole,FL,33772,27.8260635,-82.7867234,4.5,61
0ffBJcGMp9tNw7lt4j0OhQ,Asian Chao,"6020 E 82nd St, Ste 1010",Castleton,IN,46250,39.9092285,-86.0653862,2.5,10
yXP3IojU26Ms94i0RXIjKA,Latin it up,344 N 4th Ave,Tucson,AZ,85705,32.2261973,-110.9655644,4,35
vVm2qH6n4tWzN_qv6PBIVw,The Humming Bird Jerk house,"17631 Bruce B Downs Blvd, Unit F",Tampa,FL,33647,28.130283,-82.364992,3.5,32
CXC1QLCiF7eTyP8_4JVuKg,Taco Bell,7855 Oxford Ave,Philadelphia,PA,19111,40.0732939,-75.0842045847,2,27
SNYpn2BdTbz8QrrfH8rvdw,Wawa,801 Conshohocken State Rd,Bala Cynwyd,PA,19004,40.0185596288,-75.2403088108,2,12
uIK9cFiBkixiBLu4yXRQcg,Los Betos,6615 Fairview Ave,Boise,ID,83704,43.6188857,-116.2639805,3,61
r13BI8s7vx6KP6_i6L6ZRw,China 88,"1969 Sunset Point Rd, Ste 4",Clearwater,FL,33765,27.9895840566,-82.7565309026,4,16
UoZg0xZepdMXbK_2dtT2nw,Gracious Bakery + Cafe,2854 Saint Charles Ave,New Orleans,LA,70115,29.9300081,-90.08707,4.5,149
v89VYv_SzQKzl9wFOJM9wA,40th Street Restaurant,3206 N 40th St,Tampa,FL,33605,27.9710884,-82.4144392,4,13
f4DCA9U-TigfarQSagXkLA,Greek City Cafe,3125 Commercial Way,Spring Hill,FL,34606,28.4764510988,-82.6139315278,4,139
Hgjlz4Ekr5rqbLlxNczL4Q,Fiore's Bagel Nook & Cafe,5 Delaware St,Woodbury,NJ,08096,39.838251,-75.1535988,4,26
8ynnZAfsIHltv72hiM-rlA,DoubleTree Suites by Hilton Hotel Philadelphia West,640 Fountain Rd,Plymouth Meeting,PA,19462,40.1202594085,-75.2822801284,2.5,122
nBI1kRMq7IIm6yvyjMXQrg,Asian House,"2144 US Hwy 130, Ste 10",Bordentown,NJ,08505,40.110402,-74.7730457,3.5,53
uN9d_m0ZG6KM4zYVUS-ZDg,Lemmon's Cafe,8165 Sr 52,Hudson,FL,34667,28.3318586,-82.679826,4,8
o30cpvfgxHr6NQ5pvSb0Qw,McDonald's,10795 N Oracle Rd,Oro Valley,AZ,85737,32.4014077442,-110.954822459,2.5,39
ObGjKm_zRPzCbpq1x2jEjA,Allegro Pizza City Line,4160 Monument Rd,Philadelphia,PA,19131,40.0027576,-75.2135897,4,10
ut6fi2W2YaipNOqvi7e0jw,Upland Carmel Tap House,820 E 116th St,Carmel,IN,46032,39.9569253992,-86.142973568,4,244
GcQv2nqPv7nbKgcAwmsSLw,Wok 4 U,1530 S 7th St,Saint Louis,MO,63104,38.6121836,-90.1979231,2.5,10
e8rmWzn0xD34dslXQ3pj5w,Magnificent Garden,980 N Milwaukee St,Boise,ID,83704,43.6137438779,-116.2836544588,3.5,116
FxeakFEI6gObK0CxcOft-A,Manhattan Jack,4930 Prytania St,New Orleans,LA,70115,29.9244499207,-90.1086349487,3.5,155
7u40cyMxw4iGosMdkesoEQ,KFC,3663 General Degaulle Dr,New Orleans,LA,70114,29.9236748062,-90.0200117438,2,10
t2DLHKEXmj-egbkXrYR3DQ,Psghetti’s,932 Meramec Station Rd,Valley Park,MO,63088,38.5365861086,-90.4970939876,4,22
lLhm-u5kDFVHViFAFHDFqQ,Applebee's Grill + Bar,4411 W Gandy Blvd,Tampa,FL,33611,27.89368,-82.521106,2,81
RTwDv2oLE3gzAZlf63OPXA,Rat's Restaurant,16 Fairgrounds Rd,Hamilton,NJ,08619,40.237898,-74.71663,3.5,603
eF4YPHVUOlsGBRfIH-fOmQ,The Basement East,917 Woodland St,Nashville,TN,37206,36.1756716,-86.7555828,4,61
mXCc-htrMH55gdaWF7wH2A,Lucky Star Asian Cuisine,8919 Ridge Ave Store,Philadelphia,PA,19128,40.069648,-75.239764,4,127
1nZRJPd-ruBIL4T2sXhOEQ,Puffy Muffin,330 Mayfield Dr,Franklin,TN,37067,35.9543948,-86.8020639,3,61
FpYZBwVw_zdA5rfSRw4utw,Juice Bar Mt Juliet,2726 N Mt Juliet Rd,Mount Juliet,TN,37122,36.2078308,-86.5170309,4,26
4VGEq2AHUw3uP2L51S8raw,Cafe Scalessas,504 Greenhill Ave,Wilmington,DE,19805,39.7528645,-75.5790324,3.5,7
dgm6jrUZj-vAWa1OU5rbNQ,Yiro Yiro,6024 Ridge Ave,Philadelphia,PA,19128,40.0323421405,-75.2142540024,4.5,163
HYNJFIp1x-8GjkxGcVetZg,Hilltown Tavern,326 Roxborough Ave,Philadelphia,PA,19128,40.0280368007,-75.2158295149,4,133
Jf4gYr350rJKNWFqegqH3g,Lansdale Pizza,825 W Main St,Lansdale,PA,19446,40.247817,-75.293515,3,6
RKORVHAwrmwAAu1YoCQmQQ,Minami Japanese Steakhouse,1315 Plaza Dr,Smyrna,TN,37167,35.995031,-86.5273942,4,28
Ah66Bdq78isQ56DpFoFrJw,Taco Bell,3842 S. Emerson Ave,Indianapolis,IN,46203,39.709099,-86.082211,2,16
h6kRhmy42Wxqp5i62S-log,CeeDee Jamaican Kitchen,5305 E Speedway Blvd,Tucson,AZ,85712,32.2368205,-110.8792976,3.5,127
QzFEjzRuC3C6XNSsfVM33g,Lechonera Principe,235 W Cecil B Moore Ave,Philadelphia,PA,19122,39.9766109,-75.1401495,4.5,11
T2Nf8CF-0ei1I_lURYG_cw,Continental grill,3815 W Washington St,Indianapolis,IN,46241,39.7597227,-86.2259734,4,5
Lmstm1D0Ch8QP1b2TB-tVw,Perenn Bakery,"7700 Rancharrah Pkwy, Ste 110",Reno,NV,89511,39.4683778324,-119.7925580335,4.5,121
PWw3ZW59X1aZiTxkzK-f4w,The Red Onion,923 W Main St,Belleville,IL,62220,38.515113,-89.996248,2,8
6RBZfirnzE4NahJTn1UPNA,La Super-Rica Taqueria,622 N Milpas St,Santa Barbara,CA,93103,34.4279428,-119.6872838,4,1759
CWtiEPVlirbiteeK9U60lA,Happy Wok,6507 Elmwood Ave,Philadelphia,PA,19142,39.9221697,-75.2307433,4.5,8
v0108O4P6Io3NMStAc-Uhg,Blimpie,1122 S Vista Ave,Boise,ID,83705,43.5940851,-116.2128761,3.5,6
5BKoBlat3aRv0IaaPuScBw,The Drunken Chicken,429 N 4th Ave,Tucson,AZ,85705,32.2271000764,-110.9657325529,4,206
Skjt4qu-ix90v4r4blJ07A,McDonald's,274 W Main St,Harleysville,PA,19438,40.2667762942,-75.3763604164,2,17
jnge13lFtiLGXQEo5NwSYw,Sucre Table,4048 W Kennedy Blvd,Tampa,FL,33609,27.9444151,-82.5116072,4.5,67
TJotjFlbpLlEJoxnc0GD4g,Peppercorn,503 W Lancaster Ave,Wayne,PA,19087,40.045628,-75.401963,2.5,29
1cdvmkWjYCabtLd_5MMeYw,Blueprint Brewing,1571 Gehman Rd,Harleysville,PA,19438,40.2565223549,-75.3440810367,4,29
JW1qEFmFSVzxI3xWimL1kg,Rally's,1520 N. Shadeland Ave,Indianapolis,IN,46219,39.7881304,-86.0459795,2,8
NIqFlHurHm0cj6QXczYbEQ,Rudys,1001 Casitas Pass Rd,Carpinteria,CA,93013,34.396107,-119.514411,3,125
GKcaAbGsobMVhjSFktgVsA,Beaujolais Bistro,753 Riverside Dr,Reno,NV,89503,39.5218327403,-119.822186,4,257
W52Doamn1iD__5dWdohujA,Popeyes Louisiana Kitchen,2877 Target Dr,Saint Louis,MO,63136,38.773356,-90.268503,1.5,15
D_wIRGE2PHAQGQCggrtfPw,Barb's Wooden Spoon,9033 Ulmerton Rd,Largo,FL,33771,27.8951191,-82.7644367,4,23
PlaECqs3oPBRo47p85zkzw,Party Fowl - The Gulch,719 8th Ave S,Nashville,TN,37203,36.1499429432,-86.7794782301,4,1600
TqXrx4jBp5-mr4OsquRFtg,BurgerFi,2910 Little Rd,New Port Richey,FL,34655,28.2018809,-82.6657605,3.5,145
OTyqnhVR-ZWkLMlVnCPoCA,Boston Market,6350 Roosevelt Blvd,Philadelphia,PA,19149,40.0355870565,-75.0711464882,2.5,14
yTY4Mtn9eNUj35mj452DMQ,McDonald's,8937 Rancho Del Rio Dr,New Port Richey,FL,34655,28.2352649364,-82.6664885134,2,17
oFVEI1QE-gWcDrgVoy8etw,Richboro Pub,1034 2nd St Pike,Richboro,PA,18954,40.2164608,-75.0115272,3,40
2c0G2DyFUoar21Ld_gSLoQ,Carl's Jr,10535 N Oracle Rd,Tucson,AZ,85737,32.3976408,-110.9587503,2,17
uKnoHpDQTQZiqsOldeMx7Q,Weather Vane Ice Cream,3208 Maryville Rd,Granite City,IL,62040,38.719437,-90.103952,4,15
KkWQcqDPsZb6K5R5T-XJCg,Taco Bell,3501 S Grand Ave,Saint Louis,MO,63118,38.593772,-90.243397,1.5,31
CG1aAgHz1sLW86TFPauerA,Los Tres Potrillos,548 East Washington St,Millstadt,IL,62260,38.4623251649,-90.0832999673,5,5
EImGEwaos0pIqyye1u6OSA,Dominic's Italian Grille,34726 US Hwy 19 N,Palm Harbor,FL,34684,28.089266,-82.740484,3.5,48
W7IXC4Bq5jXOQVV6Cu1OSA,Wawa,915 New Rd,Wilmington,DE,19805,39.7399201,-75.5983935,2,12
pU4bdb5Ohof4KEBJvmwc8A,Chuck's Bar & Grill,1181 Colonnade Ctr,Saint Louis,MO,63131,38.6029998,-90.4409506,2,5
boIphU_TlxlMJHfFrAM03g,Wienerschnitzel,6346 North Oracle Rd,Tucson,AZ,85704,32.3219813,-110.9740882,3,28
SCOVrHA1BPgJwgSo8VveRg,Jack in the Box,11830 Lusher Rd,Saint Louis,MO,63138,38.7869339,-90.232992,1.5,8
o0DWTaPYv76pZPquHfUgUw,Daddy O's Donuts And Bakery,13227 US Hwy 19,Hudson,FL,34667,28.3498002,-82.6996252,3,6
H-ShuZET0m9IkCv-L9zFXA,Dairy Queen,9008 E 10th St,Indianapolis,IN,46229,39.7824020708,-86.0082985,2,9
8OdjsghAmrWb5VySp5_CLw,Mirko Pasta,2037 N Mt Juliet Rd,Mount Juliet,TN,37122,36.1981556,-86.5192017,4,64
7wcHZ80HLJVwUijAH_efJQ,Breakwater Restaurant,107 Harbor Way,Santa Barbara,CA,93109,34.404278,-119.694053,3.5,212
laqCluTmC5pDvbEkUkbWHg,Cactus Grill,7200 Easton Rd,Pipersville,PA,18947,40.431349,-75.141723,3.5,58
T-W7Zn6hd3ChwseyccgZDg,Baril,267 S 19th St,Philadelphia,PA,19103,39.948253075,-75.1726286252,3.5,25
UjxQP7wWh8P3mblDM4lrTg,Auntie Anne's Pretzels,2126 Abbott Martin Rd,Nashville,TN,37215,36.108567,-86.813376,2,6
WeisR1JbgA82LlSdvFpylg,The Wooden Rooster,7839 113th St N,Seminole,FL,33772,27.8436181,-82.7928085,3.5,46
MAad69FdL2Y-kSDF6SkZ3A,Sushipop,4620 Veterans Blvd,Metairie,LA,70006,30.0047228,-90.1868155,3.5,48
5OK71bsZ3UndLeTXUE5mKw,Cafe Minh,4139 Canal St,New Orleans,LA,70119,29.9753472,-90.1011957,3.5,104
cvUjcNaAJhqTU5UplnJC5A,The Big Easy Saloon,128 Paoli Pike,Paoli,PA,19301,40.037553,-75.494474,4,6
FDUFDCE5VML0zS4tSegjcg,Subway - Franklin,407 Independence Sq,Franklin,TN,37064,35.9328740231,-86.8785749022,3.5,10
TK_CXlCU1bWEZNBpR1fNDw,'Merica Food Truck,,Wesley Chapel,FL,33544,28.182893,-82.3641751,3,13
AjQGanUkM-SFa7MxwTfMRw,Elwood,1007 Frankford Ave,Philadelphia,PA,19125,39.9664035366,-75.1342273504,5,38
_IwRR4rW56uEn8BU9tMNjg,Wakita of Japan,"1102 Baltimore Pike, Ste 117",Glen Mills,PA,19342,39.8811689,-75.5435758,4.5,16
iZNVXy87SXHxlK4I2eLJHQ,The Cavern,"10169 104 Street NW, Suite 2",Edmonton,AB,T5J 1A9,53.5423580041,-113.4994361502,4.5,31
7EozHEbdu6Dq9O9ptQBArw,Pizza Hut,511 Berlin-cross Keys Rd,Sicklerville,NJ,08081,39.7439033,-74.9961695,2,6
w_R7KfoYBrWj9H0BMj3VFw,Panera Bread,1799 Gallatin Pike N,Madison,TN,37115,36.297213,-86.7007024,2.5,31
JB5tlC_7u5IHT2Z_GHN-qw,Daily Greenz,619 East Gutierrez St,Santa Barbara,CA,93103,34.4229928,-119.686982,5,8
EeXMlEF1yknnBRduo6yzHQ,White Castle,840 N Hwy 67,Florissant,MO,63031,38.799733,-90.333265,3,6
2wf4Vkz9ZEh9-TJaL2d5-g,Mandarin Express,"500 Port Of New Orleans, Ste 234",New Orleans,LA,70130,29.944324,-90.062187,1.5,19
cN-E9LtQPXrE00iaQQ7UCQ,Freddie G's Chicken And Waffle,1435 Salisbury St,St Louis,MO,63107,38.6612007,-90.200122,3.5,29
q8OUwVG1HHo8-b--nyI8gQ,The Original Boardwalk Grill & Sports Bar,126 Island Way,Clearwater Beach,FL,33767,27.977654,-82.816418,1.5,15
aJpDjaMVhWZRLdwZtqQjEg,T.H.I.S. Place,10382 105 Street,Edmonton,AB,T5J 1E6,53.5460723,-113.5012494,4.5,24
CFqHpJScxhi1jxkiHpzx0g,Arabica's Cafe,"93 Terry Pkwy, Ste 1",Terrytown,LA,70056,29.923033,-90.0364096,4,15
huIIVzj-e0oa2kN0B6-2-A,Wawa,8800 Park Blvd,Seminole,FL,33777,27.8384951,-82.7610804,3.5,8
wlWgaS7V1LhOj-uGgZgAGg,Freddy's Frozen Custard & Steakburgers,947 NW Plz Dr,Saint Ann,MO,63074,38.7354007488,-90.4012576727,2.5,5
_MM6uUK_M-trJtifosyUYw,Bonanza Western Grill,12536 137 Avenue NW,Edmonton,AB,T5L 4Y5,53.5997146,-113.5396444,2.5,13
FaPv78tmIKDhDxdos_KbZg,Gigi's Italian Restaurant,4399 Gulf Blvd,St. Pete Beach,FL,33706,27.718519,-82.7390560614,3,163
sdFJSq-EgmtplIwUamRwTQ,Bayou Burger & Sports Company,503 Bourbon St,New Orleans,LA,70130,29.9572555,-90.0670177,3.5,446
1fzSOSo9DiWxLJpJA-Tphw,King Street Grille & Market,182 Lancaster Ave,Malvern,PA,19355,40.0411937,-75.5382977,3,16
RuM9hDl_E9FN5IkkJ7HPQQ,Jade Garden,"3720 W Ina Rd, Ste 106",Tucson,AZ,85741,32.3389095629,-111.0446291171,3.5,111
Kv3rJDB3LYAF8a4X0f6TIg,Shoney's Restaurant,307 Long Hollow Pike,Goodlettsville,TN,37072,36.3256301,-86.7004064,1.5,28
xoG-zabIUFngEhic1PEajA,Upperline,1413 Upperline St,New Orleans,LA,70115,29.9248538681,-90.1075544344,4.5,390
XVYycJcfqSsU1dta9uEjgA,Starburst Cafe,160 N Gulph Rd,King of Prussia,PA,19406,40.088192,-75.391474,2.5,11
Cxh7HIPRhIr_DIetWp3jAg,McDonald's,2001 E Plumb Ln,Reno,NV,89502,39.5058621911,-119.7749723411,2.5,27
JXYKzNSaK_fznAXvmRdYPA,Root,1206 Frankford Ave,Philadelphia,PA,19125,39.9695888495,-75.134338087,4.5,160
iBGR1hX6To3FGtCgCgDtqQ,Feast and Fest Catering,1915 De La Vina St,Santa Barbara,CA,93101,34.4281804,-119.716529,4.5,32
M5NuayzFbb5RHB4KQMAvqA,Jack's Pizza,"2801 Fairview Pl, Ste G",Greenwood,IN,46142,39.6212833,-86.1576073,3,16
1TDkOZykS66a7pV6yeAAHQ,Nana's Kitchen & Catering,109 N Narberth Ave,Narberth,PA,19072,40.006222,-75.260094,4,12
KAOkwAdXQ556P_p828BprQ,Seven Troughs Speakeasy,50 S Virginia St,Reno,NV,89501,39.5248809326,-119.8116846755,4.5,99
NJ6unjwQCbCEmurnFllnMQ,Little Caesars Pizza,6932 N Armenia Ave,Tampa,FL,33604,28.012011,-82.485011,2,7
RpY32D_zRYFQPYHlrkDi9Q,McDonald's,5445 E Speedway Blvd,Tucson,AZ,85712,32.2367031775,-110.8766891761,2.5,26
VOPWc0uPOEKCIZtaL9bJYg,Domino's Pizza,1430 N 13th St,Saint Louis,MO,63106,38.6402274,-90.1940115,1.5,38
CUg4cM0WRAVlSBkLLtwqkg,Sushi On the Rocks,5252 E 82nd St,Indianapolis,IN,46250,39.905456,-86.080484,2.5,59
31s1x27DnN2V-ptUWEdfTQ,Subway,"5650 W 86th St, Ste 132",Indianapolis,IN,46278,39.9122513624,-86.2617752892,3.5,7
eEVshVMh8o6NrtsFv1P0LA,Subway,"Ronnie's Plz, Ste 38",St Louis,MO,63126,38.5288426047,-90.3635417901,2,10
kSNkNzXU8l-x_h0desmm1Q,Stage Left Grille,541 N Grand Blvd,St. Louis,MO,63103,38.639273907,-90.2316115227,4,17
7BiIK58dZNSICPN4n4qWmw,Tenno Japanese Restaurant,3408 W End Ave,Nashville,TN,37203,36.138759,-86.8203039,3.5,29
Jxe_xzKI4vFNHG_mG-04jg,Margaritas Mexican Restaurant,209 E Davis Blvd,Tampa,FL,33606,27.9272327,-82.453347,3,170
10B8LifXfBtMLbrYzTOy1A,Choice Saint Louis,7807 Clayton Rd,Clayton,MO,63105,38.637945,-90.338675,4,40
eFtQDmNER9pRB9YdPxMMXA,Jung's Golden Dragon II,3009 Magazine St,New Orleans,LA,70115,29.9250678,-90.0850239,3,284
vwX8kUqJwRzbr7JakrwIFA,AViANNA,55 E Baltimore Ave,Lansdowne,PA,19050,39.9383405249,-75.2699509042,4,88
OvREyM6JzUogb8yQXXoF0A,Olive Garden Italian Restaurant,4900 S Virginia St,Reno,NV,89502,39.481919561,-119.7910320233,3.5,299
wifZgJ9IUjNxsmebpCRiRw,Red Lobster,5259 Hickory Hollow Pkwy,Antioch,TN,37013,36.0474,-86.65692,3,52
pWAmi4uwpLGjInPSb7Et2w,Marshall's Bistro,17 Nationalway Shopping Ctr,Ballwin,MO,63011,38.5920526289,-90.5099951521,2.5,7
O1Cw2yzf4bCuKjbVTljqUQ,Flamestone American Grill,4009 Tampa Rd,Oldsmar,FL,34677,28.0377657,-82.6586114,4,519
eA9p9OXvrdQI1J1jxVsRlQ,Pho Michael,3559 18th St,Metairie,LA,70002,30.0088012891,-90.1617417474,4.5,293
Gz-yCWu_90HODnAlV_RDBg,Molly Goodhead's Raw Bar & Restaurant,400 Orange St,Ozona,FL,34683,28.0696364,-82.7759625,4,297
QmLn8zqY49r9WUsKbnmLBA,New Bamboo,2612 Bayshore Blvd,Dunedin,FL,34698,28.0506537,-82.7816064,3.5,28
mNONZre-qHT27QxH8e-FCg,Amazon Ceviche Bar & Grill,4810 E Busch Blvd,Tampa,FL,33617,28.0336653,-82.407367,4,6
qwoCL9oMo827XnhvDaobmg,Chatime,10538 82 Avenue NW,Edmonton,AB,T6E 2A4,53.5182592,-113.5020407,3,14
NnlXgLZ93KPj1wYSiqjyIg,Pete & Shorty's Tavern,2820 Gulf To Bay Blvd,Clearwater,FL,33759,27.96085,-82.720562,3.5,234
JUQG2g3KYK6nbEuKNSxWiA,Westbury Bar & Restaurant,261 S 13th St,Philadelphia,PA,19107,39.9468010264,-75.1624771881,3.5,33
-1XSzguS6XLN-V6MVZMg2A,Restaurant Rebirth,857 Fulton St,New Orleans,LA,70130,29.9435371,-90.0653721,4.5,521
sMBRISrbZXeIFK0gG_sIkw,Del Buono's Bakery,303 S White Horse Pike,Stratford,NJ,08084,39.8277966,-74.9991823,4,11
bD6mNv9Vha3Wn0LOuG4bIQ,Super Tacos,7853 Michigan Rd,Indianapolis,IN,46268,39.896636,-86.2149249,4.5,46
AJf_G2CKc1ZDC2NE4oj3rw,Jimmy John's,13586 NW Industrial Dr,Bridgeton,MO,63044,38.7755156,-90.4453487,2.5,7
CTQvYTvrpV9yx3vBpsHOUQ,"Chicago's Pizza With A Twist Reno - S Virginia St, NV",1885 S Virginia St,Reno,NV,89502,39.5061871934,-119.8040200592,4,114
nk8G5s5X2gUWQ2sCKHQOgw,Cerino's Pizza,Rt 70 & Jones Rd,Medford,NJ,08055,39.9005850454,-74.8316015394,3.5,18
EQXQ8KvVBLeOdzlwXjwGYA,Best Friends Coffee & Bagels,1060 E Main St,Brownsburg,IN,46112,39.83662,-86.37875,4.5,161
GLXyaMTUbIb8uX4_aWlsfA,Taco Bell,40976 US Highway 19 North,Tarpon Springs,FL,34689,28.14566,-82.7405,2,23
WZbdxpBvOYK0_xt9KoTKCA,Bluwave Street Tacos,7609 W Overland Rd,Boise,ID,83709,43.5892143457,-116.2770754568,3.5,16
q7mT2AVq7uG_1kmph-NYXw,Seaside Inn Restaurant & Lounge,5330 Treadway Dr,Port Richey,FL,34668,28.2733478,-82.7264741,3,16
fdmLML9X_0mWWG3TFVWniQ,IHOP,7945 E Broadway Blvd,Tucson,AZ,85710,32.22145,-110.8234,2.5,112
ngNnqSeyTy9qCln6CCkGyg,Cafe Terra Cotta,3500 E Sunrise Dr,Tucson,AZ,85718,32.3196465,-110.9189568,3.5,7
zupI44qitH6T8Bo9OjA6Yw,Bagelicious and More,30032 Sr 54 E,Wesley Chapel,FL,33544,28.23997,-82.318874,3.5,107
N8fOheheo3Nruo5gXRghIQ,Reed's Restaurant & Nightclub,1486 Skippack Pike,Blue Bell,PA,19422,40.1690221,-75.2937002,2,14
1SwfAYI1HGDyJKHmdRXI5Q,Dale's Family Restaurant,5209 E Thompson Rd,Indianapolis,IN,46237,39.6932771775,-86.0810571749,4,156
OvfEIlbmU9TYxBQ23vULbw,Jimmy John's,"3970 Tampa Rd, Ste. A",Oldsmar,FL,34677,28.036457,-82.6594418,3,28
DHENrreqQDQx9NtuorNOZw,Gio's Cuban Cafe,411 S MacDill Ave,Tampa,FL,33609,27.9405177,-82.4936628,3,16
PTR7WYnF0yJ6OTaC7HdLCA,Panda Chinese Restaurant,10537 E Washington St,Indianapolis,IN,46229,39.7744153,-85.9795377,2.5,13
FSozpKB2RTUr8M4mVJeVhw,Ashoka Palace,2286 Mckelvey Rd,Maryland Heights,MO,63043,38.7212206622,-90.4481124955,2.5,11
HCAEt5uZvcE3gU46bViwvA,Petunia's Restaurant,817 St. Louis St,New Orleans,LA,70119,29.9572864,-90.0674261,4,41
hGCETx03FN8Qtx1T8StHaQ,South Shore Pizza,3026 E College Ave,Ruskin,FL,33570,27.714662,-82.393271,3,62
W_KCxp8zEb8_PG1ZoP37eg,Italian Delight,134 Veterans Ln,Doylestown,PA,18901,40.3191005,-75.1312295,3.5,10
lSfdDzqxFIYmJDWCh3dj_w,Monical's Pizza,"6010 W 86th St, Ste 124",Indianapolis,IN,46278,39.9132682834,-86.2658728859,3.5,50
j00Jky-A3xhT4u7VtO6d2g,Wit's Inn,141 N Carrollton Ave,New Orleans,LA,70119,29.975429,-90.099705,3.5,92
cZO-JrFt24WguTn7-RVPGw,Anthony's IV pizza,335 W. Bridge St,Morrisville,PA,19067,40.2052210358,-74.7805291891,3.5,20
r74RFITH8ZbqY4wCg4dOhg,Xpress Pizza & Grill,217 Bridge St,Phoenixville,PA,19460,40.134056,-75.5169561,3.5,21
35BuVcbDU7D9mjmruxmnEw,McDonald's,104 W Bearss Ave,Tampa,FL,33613,28.08767,-82.4604798,1.5,23
8njTcZKsdTQOjfvth5G4gQ,Trap House Wingz,1613 Buchanan St,Nashville,TN,37208,36.179822,-86.81058,4,10
jtMXBW4KZ11T6nmZs0-v8A,Inkas,5356 W 38th St,Indianapolis,IN,46254,39.8246027,-86.2534375,4,54
8oHKJvWMqOx_PrSIG4odAw,Appetite Global Cuisine,"205 Carnegie Drive, Unit 112A",St Albert,AB,T8N 5B2,53.636522797,-113.5752415325,4,27
TACJqngUeON55j6bBBGLag,Monte Carlo Pizza and Family Restaurant,1885 Swamp Pike,Gilbertsville,PA,19525,40.3015619,-75.586415,2,8
qk3mQdLNPa76XrjVJiwhrQ,Patriots' Table,"1265 Madison Ave, Ste 141",Greenwood,IN,46142,39.6347187,-86.115371,3.5,25
C6AiAF35zwpAoK5jjm-nhA,Montecito Coffee Shop,1498 E Valley Rd,Santa Barbara,CA,93108,34.4372898,-119.632278,3.5,37
dmKs3W3l6BGKp1OAs1AUIw,Rocco's Pizza,100 Shopping Ctr,Exton,PA,19341,40.0506883157,-75.6360092865,4,11
c1hJ_412NqMdFP6Tn_nv2g,Granny's Brier Patch,2577 Hwy 41 S,Greenbrier,TN,37073,36.4303831308,-86.8057693,2.5,6
BwNivkSRDx_Sf4Gx57jT9w,Ott's,656 Stokes Rd,Medford,NJ,08055,39.869943,-74.811461,3.5,72
C_UGT4dyFaG-_-ohBJLKog,Bagel Fair,1300 E 86th St,Indianapolis,IN,46240,39.9148543182,-86.1371811681,4.5,145
KYIjGeksxRvNyVPh3S78Gw,Jet's Pizza,1400 Liberty Pike,Franklin,TN,37067,35.9247172,-86.7959121,3,28
c1e2juwQjrfnMc6yQHJOkg,Tropical Cafe,222 E Main St,Collegeville,PA,19426,40.1922492657,-75.4603257302,3.5,10
-LpG-lx52Mjp7jyJ8YZHZQ,Non Stop Deli,2842 W Girard Ave,Philadelphia,PA,19130,39.9742886,-75.1834252,3,8
fzLzJGsGMN-Qb_UDDvsDVA,The Other Place Sports Bar & Grill,"6900 Lenox Village Dr, Ste 17",Nashville,TN,37211,36.0247301,-86.7117719,3,77
cgnU59I7pMj-VMeBXhh4cA,Healthy Happies Carmel,20 Executive Dr,Carmel,IN,46032,39.9636938,-86.1253351,4,15
5FDt7sy-70y4_37Dh2qcbw,El Arado Mexican Grill,1063 Virginia Ave,Indianapolis,IN,46203,39.7523127,-86.140383,3,162
e1S7fk_rLmKjezewn85s9A,Blue Coast Burrito,112 Saundersville Rd,Hendersonville,TN,37075,36.3253591147,-86.5948288368,3.5,38
shhLEpL0BGni58akTfaxLw,Syphay Restaurant,4428 Calgary Trail NW,Edmonton,AB,T6H 5W6,53.482643,-113.495749,4,6
UWveIAhOK2uzJed5UZiLLA,Visions Restaurant,700 Church Ln,Yeadon,PA,19050,39.9339892,-75.2511041,3,10
a2FCobBzFzC62IbHPa_oIg,Mediterranean Cafe & Ice Cream,3409 Walnut St,Philadelphia,PA,19104,39.9530608377,-75.1928841837,2,12
slqFzfT2fGJ8djTNulZExw,Chick-fil-A,10790 Park Blvd,Seminole,FL,33772,27.8391534847,-82.788431,3.5,36
DBtvUjFaT1v-p6vCxY2nTw,Moar Tea & Poke,448 Massachusetts Ave,Indianapolis,IN,46204,39.773562,-86.1514379,4.5,177
Eqk5YvLF_IokjJrO2FQs3g,Julie's Little Kitchen,1841 Old Missouri 21,Arnold,MO,63010,38.44271,-90.45673,5,12
c6fWBSm-EHVwyFszTC5Mhw,Del Frisco's Grille,"1201 Demonbreun St, Ste 104",Nashville,TN,37203,36.154392,-86.7863151,3.5,241
zH0fUF9CB3mzp07fEcUBSg,Thai One On Food Truck,,Tampa,FL,33629,27.9348410686,-82.5203814778,3,5
9D1Vuxuh-hvwkYBrqje1nA,Stacky's Seaside,2315 Lillie Ave,Summerland,CA,93067,34.4214242,-119.5997696,3.5,63
2gornVKjX0TKhZHmhqSSMA,Argana,2 N Lansdowne Ave,Lansdowne,PA,19050,39.938419,-75.272402,3.5,34
NghIUbFjp683iyVJtF8u-g,The London Tea Room,1520 Washington Ave,Saint Louis,MO,63103,38.6327671,-90.2022956,4,101
ElIXZnESN32voI8sZRUkjA,Cantina,2500 E 2nd St,Reno,NV,89595,39.5234844,-119.7804047,2.5,219
nC1nF306iY8kR_4H-yDHaA,Taco Bell,6501 East Washington Street,Indianapolis,IN,46219,39.771433,-86.055787,1.5,20
tSmUxIto8yAqijDgsjLBRQ,South Coast Deli - Santa Barbara,3534 State St,Santa Barbara,CA,93105,34.4406775553,-119.7397025874,4,10
MCcxe7UiXr0HcVxdxv0gJA,28/65 Brewhouse,2865 Veterans Memorial Pkwy,St Charles,MO,63301,38.7832055,-90.5245639,3,109
BtFMRicRKWxKJhffKSdP9A,Gyro Zone,18215 US 41,Lutz,FL,33549,28.1387664756,-82.4627963227,5,13
3W6Q0b0jaKn4lhQNWWcXdQ,Lu's Chinese Restaurant,47 S York Rd,Hatboro,PA,19040,40.1761735,-75.1064798,3,12
JNOW_mK5G4vUCuGmpHavJg,The Grand Siam Lounge,"2325 Ulmerton Rd, Ste 28",Clearwater,FL,33762,27.8946541,-82.6670194,3.5,96
ITDhUnCanWcMhPTvQDa3mA,John Henry Seafood Restaurant,2 Mifflin St,Trenton,NJ,08611,40.2135258,-74.7424072,4,7
mnq8JNUjIBwUoLBk-b2V9g,Jamba,"930 Poydras St, # A",New Orleans,LA,70112,29.950181,-90.074232,4,67
f-yaDekqDfgqqjcz_wryBA,Mae Mae Asian Bistro,"1445 Westbank Expy, Ste 1A",Westwego,LA,70094,29.8966669,-90.1357913,4,15
mfMb53r8mEtLtoqSOkDxXg,New Golden House,5833 Germantown Ave,Philadelphia,PA,19144,40.0377555,-75.1761754,3.5,7
wT2QIkaHz06wWSbe-Fykxw,Cha's Seafood,359 Pennington Ave,Trenton,NJ,08618,40.2322234112,-74.7708347364,4,18
1zAQ7CGZXnIkUXFinHcFhg,Brockway Public House,12525 Old Meridian St,Carmel,IN,46032,39.9718608568,-86.151123519,3.5,181
y_ErDiWeXxyYcL1_U966qQ,Yi Palace - Wilmington,4435 Concord Pike,Wilmington,DE,19803,39.814853,-75.548638,3.5,118
ug46LQ5eq0uF6NE3adHhyw,Jimmy John's,1601 N 15th St,Philadelphia,PA,19121,39.9779969,-75.1592852,3.5,39
o5Uee_gmS-y9R582PAkX6w,First Watch,8646 Hunters Village Rd,Tampa,FL,33647,28.140282,-82.35718,3.5,15
yIy70vHKF_L3Gy1cu2Wqwg,"Laurel Oak, Southern Brasserie",535 Gravier St,New Orleans,LA,70130,29.9510212,-90.0685271,5,57
MxJ6cYihCfxwjqUkxRwCfA,Carlitos Calle Tacos,,Reno,NV,89502,39.4835647,-119.7310213,3,15
sEyr0I4wV0T4D7fIkpHM8A,Kowloon Chinese Restaurant,"850 S Valley Forge Rd, Ste 13",Lansdale,PA,19446,40.2402960693,-75.30441,3.5,32
bn0XzKxBRBWvnHUMg5cz6g,Red Lobster,"1249 New Churchman's Rd, CENTER POINTE PLAZA",Newark,DE,19713,39.690131,-75.66123,2.5,59
H9XYhNxQWdHAwjTCzOfFMA,Scholars Inn Restaurant & Lounge,725 Massachusetts Ave,Indianapolis,IN,46204,39.7767264,-86.1462257,3.5,28
MTB9CelShC-x4jj31BJYAg,Red Bicycle Coffee,"2190 Nolensville Pike, Ste E",Nashville,TN,37211,36.1272784,-86.7529119,3.5,248
B61ZWIX1AEl76A2WEdDZMw,Lestardo's Crab House,135 Christiana Rd,New Castle,DE,19720,39.6642603,-75.6168534,3.5,123
8T231RRuZWqxGMu6SqC6TA,Santi Pizza,308 N Forklanding Rd,Maple Shade Township,NJ,08052,39.9597568,-75.0055108,3,19
cdWo8WYBnxi8khd4B6DFog,Burger 21 - Airside A,4001 BESSIE COLEMAN BLVD,Tampa,FL,33607,27.9761021234,-82.532184751,2.5,38
jtcsbp7trZmXEIaClV7waQ,Daybreak Cafe,1981 N Pinellas Ave,Tarpon Springs,FL,34689,28.172653,-82.7509499341,4,38
Bv-v7B3Bva_t-sYpNIhzrQ,Wawa,100 Boot Rd,Downingtown,PA,19335,40.0005452844,-75.7011961789,3,10
tkY5BJVXxUmP4jsKavkf2g,Big Ray's Fish Camp,6116 Interbay Blvd,Tampa,FL,33611,27.8791768124,-82.4952822636,4.5,653
lZbimwxtW5JPB6biT7_q3w,Carnitas y Taqueria La Frontera,4102 Madison Ave,Indianapolis,IN,46227,39.7062557912,-86.1421196361,5,14
RQcuGe28Q8laCF1w1aBYiA,Paradeco Coffee Roasters,"111 2nd Ave NE, Ste 101, Plaza Tower & Courtyard Shops",St. Petersburg,FL,33701,27.7736946132,-82.6335648325,4.5,75
klmmVypIS-xJsB8h9H2K6Q,Roma Pizza & Pasta - Inglewood East Nashville,3803 Gallatin Pike,Nashville,TN,37216,36.2145162,-86.7309803,3,36
UEPf0MGsw2mOlarskQX1Zg,Streetcar Poboys & Seafood,1610 Saint Charles Av,New Orleans,LA,70130,29.937916,-90.0758264,4.5,45
TaK6QGR0mpwcOd8rwr38vA,Toucans Bar & Grill,431 Mandalay Ave,Clearwater,FL,33767,27.979704,-82.82699,3,208
xv_U__GI9gmzKIHT_TANnw,Hoshun Restaurant,1601 Saint Charles Ave,New Orleans,LA,70130,29.9384803,-90.0765382,3.5,403
_vetnsfyQcbeYfxoiTIOPA,Zeppelin Nashville ,505 3rd Ave N,Nashville,TN,37201,36.1687432454,-86.781358755,3,55
EPMHuTHu46B123ivRIZ-Xg,Magic Carpet,34th & Walnut St,Philadelphia,PA,19176,39.9528123,-75.1920992,4,135
vIwdLdSMmGMjRin9OSxViA,Mystic Restaurant,515 Stump Rd,Montgomeryville,PA,18936,40.2326297,-75.2280792,4,56
u3-N3TKXpb7_fhxaF6BxBQ,Fazoli's,1695 Meridian Oaks Dr.,Greenwood,IN,46142,39.6144011,-86.1578849,3,25
50w0JG2TggLBmVbS86aQWQ,Dave's Diner,2823 High Ridge Blvd,High Ridge,MO,63049,38.4635755685,-90.5313819868,4,27
hMOo98ZQhKM8XvxshvmtNA,Wokworks,S 15th St & Market St,Philadelphia,PA,19102,39.952385,-75.16525,4,29
cbICYefFAJH8LokJFcGXPA,Buffalo Wild Wings,2747 East 62nd St,Indianapolis,IN,46220,39.86829,-86.1181260722,2,129
pN4bu3X4Upie2fc9H7BY7Q,MOD Pizza,"3741 West Chester Pike, Ste 100",Newtown Square,PA,19073,39.9869837824,-75.4056975807,4,74
wVrJOXjRrPKIfZbNnrl3ow,Pizza Delicious,617 Piety St,New Orleans,LA,70117,29.9624187101,-90.0428899696,4,678
o6wweypWJFP-yHkI06KNMA,Pizza Time Saloon,201 W 7th Ave,Conshohocken,PA,19428,40.0801919,-75.3041141,3.5,26
WKkLsiO4SxdegSNGJzVWpQ,Buffalo Wild Wings,"4058 Tampa Rd, Ste 1",Oldsmar,FL,34677,28.035069,-82.654326,2.5,140
zHIMq60S8XjhVHfUIODa2g,Mangos Mexican Restaurant,300 Indian Lake Blvd,Hendersonville,TN,37075,36.3300027346,-86.5901824193,3,53
gmYNsG1R5u3e3FueeowAEg,Filiberto's Mexican Food,4011 E Grant Rd,Tucson,AZ,85712,32.2509325,-110.9074194,3,59
jA_qpN08DEkJukiv9WB1bQ,DiNozzo's Pizza,955 S Township Line Rd,Royersford,PA,19468,40.1946045331,-75.5302130936,3,6
56M2bwaaSzcmzr2dyEfYQw,Adriana’s On The Hill,5101 Shaw Ave,St. Louis,MO,63110,38.617843,-90.270609,4.5,397
r6IG0BYHa0JUsCBSQTKtQg,Pitchfork Pizza Parlor,"401 Long Hollow Pike, Ste 100",Goodlettsville,TN,37072,36.328283,-86.69846,4.5,39
DFc6sUqeT4iYwWsGnkwQ9g,Ozzie's Restaurant & Sports Bar,1511 Washington Ave,Saint Louis,MO,63103,38.632948,-90.200772,2.5,17
NPVO5zTP8mbcpciaZ0-GDg,New York Kitchen & Lounge,4606 W Boy Scout Blvd,Tampa,FL,33607,27.9593884,-82.52283,3.5,25
Au6bDTawKEYXUJuhq6MBNw,Kitty's Luncheonette,2721 E Somerset St,Philadelphia,PA,19134,39.9788544,-75.1110948,4.5,29
nWQXPA2XL4WAJ2HONTw9sg,Nick's Family Restaurant,5701 Central Ave,Saint Petersburg,FL,33710,27.7712344,-82.7110294,3,5
qSeAn4hZV7QzpdqyHQ0ZKg,Crispy Pizza,1858 E Allegheny Ave,Philadelphia,PA,19134,39.9951676,-75.1126054,2,12
CYtZ26o7A1CNtFH8TGRcZA,Domino's Pizza,"1060 W Beta St, Ste 180",Green Valley,AZ,85614,31.9029332435,-110.9874041668,2,30
HFcL9_nbvB_YTsSX5CR6Fg,Misoya,10146 104 Street NW,Edmonton,AB,T5J 1A7,53.5420732087,-113.499476,4,27
cdPjDZubPvok0VHv654Tvw,Subway Restaurants,400 21st Ave S,Nashville,TN,37203,36.1471283903,-86.7990377411,2.5,16
xpxot30FwP55-KHEkZw4eQ,Domino's Pizza,402 N Carrolton,New Orleans,LA,70119,29.9768413,-90.0977035,1.5,48
BSKzmE_KCDGHPXQVR7N0PQ,FARE,4838 Magazine St,New Orleans,LA,70115,29.9201683,-90.1070749,4,31
-_PJA3nxv4BfnNz7nZS93A,Joyful House Vietnamese Cuisine And Seafood,3900 S Grand Blvd,St. Louis,MO,63118,38.5860948,-90.2438914,4.5,29
VOBvxu8SzLGSun8o5OFhjA,QT Vietnamese Sandwich,,Philadelphia,PA,19104,39.9558866,-75.1934096,4,6
GIXRcLiCLGLP2fdCtz9zcA,Jade Buddha Chinese Restaurant,4433 Jefferson Hwy,New Orleans,LA,70121,29.9592377,-90.1731159,3,29
_cb1Vg1NIWry8UA0jyuXnQ,Cheng Du,82 E Lancaster Ave,Paoli,PA,19301,40.04143,-75.477591,4,132
JUruKsTe0fdPbQHCT8XTug,Root 217,1180 UCen Rd,Goleta,CA,93117,34.4114242845,-119.8439178386,3,31
D48I-imYNjFo9bmsiZc-YQ,Yamato Japanese Sushi and Hibachi,"9910 Frankford Ave, Ste 270",Philadelphia,PA,19114,40.0649342,-74.9836156,4,97
GfRhcofYZGPP4iRXe-Vw8w,World of Beer,2815 E Fowler Ave,Tampa,FL,33612,28.0538138,-82.427664,3.5,213
r2IhvKZQ_wLR5mLBnPOilg,The Honor Bar,"1255 Coast Village Rd, Ste 101",Santa Barbara,CA,93108,34.4210441,-119.6419027,4.5,557
p31mCjSLFdHqytqKnTI0Xw,Pegasus Restaurant,445 Delsea Dr,Franklin,NJ,08328,39.5591182422,-75.0235748291,3,77
_CatY2VC230AGI0cWzEmxQ,Main Street Nutrition,358 E Main St,Collegeville,PA,19426,40.187311,-75.4529417,4,7
4hrG_t1YmpipaKiE4Caq7w,Pizza Amore,77 Hartford Rd,Delran,NJ,08075,40.0135763,-74.9367467,3.5,57
8jQDG9FVTx0JtUhXCfPV5A,Señor Taco,"6447 Park Blvd N, Ste 2",Pinellas Park,FL,33781,27.8395858,-82.7246405,4.5,435
xzDBoVc1QfPzq9MsSE8T1A,Mandarin House,1370  S Range Line Rd,Carmel,IN,46032,39.958735,-86.1277485,3,115
zsDjnBHyJsYfkdry96x75g,Gold Coffee Pancake House,"8810 South Emerson Ave, Ste 275",Indianapolis,IN,46237,39.6386881234,-86.0839409754,3.5,92
1W4gz758cCBQHEmlCAycPA,Subway,3628 S Grand Blvd,Saint Louis,MO,63118,38.591143,-90.243595,1.5,5
liPt8EZuHzf31IBLpZnhMA,Marcello’s Pizza-Grill,10849 Bustleton Ave,Philadelphia,PA,19116,40.1102701,-75.024101,4,8
sroYm8E9BbnnLO3nhKjomg,French Quarter Festival,French Quarter,New Orleans,LA,70130,29.9578368769,-90.0641038164,4.5,91
hTA0eCoMdAebXzm4jkx-0A,Lisa's Cafe,13331 Gulf Blvd,Madeira Beach,FL,33708,27.7898308,-82.7871445,3.5,443
FjkLXJCoM_rgP2osroSxdg,Pho Sunrise,2305 Veterans Memorial Blvd,Kenner,LA,70062,30.0059193,-90.2363156,4,122
N18rU96Qr_XQtSqfQynZMg,Grillsmith - Countryside,"2539 Countryside Blvd, Ste 6",Clearwater,FL,33761,28.0144230995,-82.7338134329,4,293
p9LOhswQql09-yPtF4jsZQ,The Whiskey Tango,14000 Bustleton Ave,Philadelphia,PA,19116,40.1312728,-75.01315,2.5,10
Y4ekZBFgSauDaVOqI52vPQ,Blue Coast Burrito Express,2323 Elliston Pl,Nashville,TN,37203,36.1489461,-86.8061621,3.5,8
1E5h3CFrNZetWcWQut-KwA,The Coffee Station,7 Kedron Ave,Morton,PA,19070,39.9079646,-75.3266644,3.5,92
IXaeTjiYZEw6fukh_X57xg,Chick-A-Boom,4626 Lancaster Ave,Philadelphia,PA,19131,39.9711355,-75.215612,4,15
Y-yULogxoHo0X9qjx8U41w,Lucky 7 Tavern,747 N 25th St,Philadelphia,PA,19130,39.968768,-75.178158,3,25
Vsbe7-4gt485ri-WQOsP2A,BACON,121 N 9th St,Boise,ID,83702,43.616865,-116.204535,3.5,339
ELgiifL3QLqzMaCo1frbdg,Waffle House,7676 Hwy 70 S,Nashville,TN,37221,36.0807621,-86.954689,4,27
nK_-VSm_Bx4qjMtVmVuwXQ,Mr B's Bakery,"4801 General Meyer Ave, Ste 107",New Orleans,LA,70131,29.9320445457,-90.0042543188,5,18
GNnDvJwtA9C1XFf-yv4KVA,La Marqueza - Food Truck,Spring Garden St,Philadelphia,PA,19130,39.9610084469,-75.1666989129,4.5,23
Yl9oeLmeQvpPLlo6tk34AA,Tlaxkalli,348 W Gay St,West Chester,PA,19380,39.9578959989,-75.6108072773,3.5,31
jZxs7PDhUbhg4LWSFM4Z_A,Best China Inn,4423 Locust St,Philadelphia,PA,19104,39.9541202,-75.2112357,3.5,87
GdgZ98wg0ScYBxCQYs5BpA,Cinco de Mayo Mexican Restaurant - Hendersonville,"104 Glen Oak Blvd, Ste 150",Hendersonville,TN,37075,36.3242198,-86.6183251,4.5,18
DcejXAJp_MbhvdTTiPjMvg,O.E.C. Japanese Sushi & Hibachi,13847 Walsingham Rd,Largo,FL,33774,27.8806471,-82.829772,4,56
44FugwIywDjD6TwSESAmkw,QuikTrip,3475 Lemay Ferry rd,St Louis,MO,63125,38.5119857,-90.3191137,4.5,5
Ef2bzjkqUHBefPKHsMbDaQ,Café Hope,1 Timberlane Dr,Gretna,LA,70056,29.879635,-90.04102,4.5,36
2ao0GD9qmbF6XjhfqDlkvg,"Chez Pierre French Bakery And Cafe On Harrison, Lakeview",141 Harrison Ave,New Orleans,LA,70124,30.00592167,-90.116865,4,35
qU3ozbYKiiF-MZyXfQmLvg,Gilmore's Restaurant,133 E Gay St,West Chester,PA,19380,39.9616494,-75.6030434,4,27
zvXK340RFrQqaPU22U7zcA,Erthe Coffee and Pizzeria,3966 Dodson Chapel Rd,Hermitage,TN,37076,36.173792,-86.61481,4.5,19
aBrWR7OjjXL_n63q1cnujw,Pizza Hut,7341 Jefferson Hwy,Harahan,LA,70123,29.9361901201,-90.2026211705,1.5,16
uE0iQih1BfnQUTUxI3iFMw,Dairy Queen Grill & Chill,4831 Nolensville Pike,Nashville,TN,37211,36.0644114,-86.7175672,2.5,17
NjozOOgSQqGFn8Wnbn8HkQ,Arby's,2350 Murfreesboro Pike,Nashville,TN,37217,36.0841599584,-86.6467602,3,7
ggHimx48c_hPPvTwsBgyAQ,Let It Be Ice Cream,3127 Beach Blvd S,Gulfport,FL,33707,27.7380966,-82.7080161,4.5,28
39t-p5woEOErAhGXS1qjyQ,Pizza Hut,3510 McKelvey Rd,Bridgeton,MO,63044,38.7498311,-90.4279552,1.5,32
gxL1ffZZiJjPqydS379XZw,Accent Lounge,8223 104 Street,Edmonton,AB,T6E 4E7,53.5186834,-113.4972006,4,62
nt0IfQOQwZvEIjYl79M-pQ,Twin Peaks Boise,7751 W Spectrum St,Boise,ID,83709,43.58722,-116.2785905,3.5,123
aSLURDEj9Kw2YQkpP_ZAlg,Taste King Restaurant,10763 Bustleton Ave,Philadelphia,PA,19116,40.1090436,-75.025017,3.5,70
hA03QM1dEu5DLU0TB9rx4g,El Barrio Cantina & Tequila Bar,1470 Buck Rd,Holland,PA,18966,40.2043451579,-74.9530753121,3,251
RLqydzwJbWUMvrvw7Vsedw,Gordito's Tacos,1771 Valley Rd,Reno,NV,89512,39.5445499835,-119.8083555647,4,13
DBIs8znvD-RUy9rFsKiJUQ,Cafe Whitney,255 N Virginia St,Reno,NV,89501,39.527958879,-119.8137446318,4.5,38
HdV3iwFtEmvdaW9dYw_wlQ,Alpine Pizza,7330 W State St,Boise,ID,83714,43.6690589392,-116.2795007362,4,21
twficKhd2QU0N2oEraX4nw,Taste of Europe,4320 W 96th St,Indianapolis,IN,46268,39.9266383,-86.2338449,4,35
pKpu9LDo8jndikkkAHoAsw,Pagano's Steaks & Shakes,6300 Torresdale Ave,Philadelphia,PA,19135,40.02078,-75.053761,2.5,21
f9tOAO-RLCvA-uptJATrSA,Sonic Drive-In,13947 New Halls Ferry Rd,Florissant,MO,63033,38.8062165703,-90.2974878328,1,17
frgOKiI-_KVMP28tqJ0cSg,Bebop Pizza Kitchen,705 E 54th St,Indianapolis,IN,46220,39.8509529,-86.145395,3.5,54
wyme57hUL0vn4I9ElGR_-g,China King,4459 Lebanon Pike,Hermitage,TN,37076,36.214658,-86.600107,2.5,21
3gqWbaq86WGLScQlcMXEyg,McDonald's,7300 N Lindbergh,Hazelwood,MO,63042,38.7833590415,-90.354909051,2.5,28
PDGyduDCysMP5L__5BnYJA,The Board & Brew,"3200 Chestnut St, Ste A",Philadelphia,PA,19104,39.9534403364,-75.1883720979,4.5,19
6JqyhgPbWcDpUJ45iNtF3g,Imo's Pizza,"7345 S Lindbergh Blvd, Ste A",Saint Louis,MO,63125,38.5066690603,-90.3263604641,3,26
qDkbudGRfmJvf7trQZea4g,Ruth's Chris Steak House,260 S Broad St,Philadelphia,PA,19102,39.9472570078,-75.164857377,3,110
S-c-kYmsuRQQY23N6LYXdw,Kotobuki,475 Hurffville Crosskeys Rd,Sewell,NJ,08080,39.7392568,-75.0719033,3.5,5
Lsw4VnF3xK_Rcnl6VIM4Qg,Soul Fish & Chicken,2067 W Hwy 50,O'Fallon,IL,62269,38.5927969524,-89.9628591165,3,36
KFk7PO8X2ApsrIGXh15AOg,Burger King,1840 Lapalco Blvd,Harvey,LA,70058,29.8749584,-90.0506131,1,6
F5b99wMsfB_TpUBye-iOeg,Kobe Japanese Bistro,516-6655-178 Street NW,Edmonton,AB,T5T 4J5,53.502949826,-113.628151625,4,50
Ijm8QKl_WS9iR4gxe7EohA,Boathouse Kitchen & Bar,6300 Gulf Blvd,St Pete Beach,FL,33706,27.734335,-82.74674,3,114
2r-p8wj3dZm1baMbOzBvZg,Ho Wah Restaurant,325 W Northfield Dr,Brownsburg,IN,46112,39.8567365,-86.3957414,3,40
8BRYRyErfJfPkIa8C38YfQ,DOC Haus,6217 Morganford Rd,Saint Louis,MO,63116,38.570466,-90.2735395,3,5
HzLJATakf0LLjOYz9znnQA,Mothership Pizza,3402 Tulane Ave,New Orleans,LA,70119,29.9651788,-90.0994095,3.5,5
pj8Y-5vfbRitnnm2xJFH9w,Jamaican Jerk Hut,1436 South St,Philadelphia,PA,19146,39.944275,-75.166787,2.5,276
hOVphvLElFBXKDArFRgUvQ,Liter House,5301 Winthrop Ave,Indianapolis,IN,46220,39.8493601,-86.1413094,4,200
8uF-bhJFgT4Tn6DTb27viA,District Donuts Sliders Brew,2209 Magazine St,New Orleans,LA,70130,29.9294259,-90.0770687,4.5,2062
8r23xbXXpI-g8MJYd4jT2A,Avenue Kitchen,789 E Lancaster Ave,Villanova,PA,19085,40.0377549,-75.3515864,3,84
U61GVlMhdnMPri2NJXHayQ,The Goodness Land,"6555 W Overland Rd, Unit 110",Boise,ID,83709,43.5894202,-116.2624841,4,155
H_yVbOCHTEocWeXl6UXkIQ,Toto's Pizzeria,6555 Greene St,Philadelphia,PA,19119,40.043998,-75.190724,3,136
_kaXQwnlsnfpUsKr3otCBg,Nam Son Bakery,1600 Carpenter St,Philadelphia,PA,19146,39.9392139,-75.1702777,4.5,104
ySlb6aLKqaUmS9TS7ZCI7w,Zesto Pizza & Grill,125 S 40th St,Philadelphia,PA,19104,39.9546963178,-75.2023281628,4,127
Ug9b04y6CXzewYZ230xflQ,Ruffin-it Barbecue,,North Coventry Township,PA,19465,40.2159602,-75.6789905,4.5,9
JFUTJaE3REmCne1hnWm-OQ,Taste-D-Burger,,Saint Louis,MO,63114,38.7048818,-90.3465971,3.5,12
kLas0AKQ5D0HoIqPYsqrIQ,Pizza Artists,2673 Haddonfield Rd,Pennsauken Township,NJ,08110,39.9719481,-75.0232886,2,16
YZtPfTnsJiNxImIHKaRV3g,Empire Szechuan,"842 Red Lion Rd, Ste 19",Philadelphia,PA,19115,40.1021784,-75.0312925,3.5,7
HURWp66d8dbY6qFLHkRvew,Mt. Fuji Steak & Sushi,11219 Lebanon Rd,Mount Juliet,TN,37122,36.2309492,-86.5126509,2.5,13
pvQqt8VOEZu8lOHbl3hkGw,Lucky Wishbone,5220 S Nogales Hwy,Tucson,AZ,85706,32.1573716,-110.9664275,4,22
g5J9OJ5e8SgLYd2DL8_K9w,Disfruta,5777 Hollister Ave,Goleta,CA,93117,34.435557,-119.8261423,4.5,10
OAT5j2W8F5ypj0eDGH22Xg,McDonald's,1002 S 78th St,Tampa,FL,33619,27.9403758,-82.368267,1.5,6
0mijbNf-7wiKJ9xto1pAyg,Spice Finch,220 S 17th St,Philadelphia,PA,19103,39.9493776356,-75.169540979,4.5,325
-vXGKRBI9qOtNLoptRyaHQ,Friendly's,9103 Town Center Blvd,Voorhees Township,NJ,08043,39.8519923478,-74.9992798379,2,53
WnClhWcKwtrUD1U0cDhDgg,Raw Sushi,2273 S Vista Ave,Boise,ID,83705,43.5817536,-116.2143097,3,56
U51t81GzCh_TmnWx_bxbsA,Lucky Louie's Sausage & Hot Dogs,6541 Sunset Ln,Indianapolis,IN,46260,39.8769658,-86.1663424,4,6
2va-BK-z06mmPkSjNAJX0w,China King,450 Pennbrook Pkwy,Lansdale,PA,19446,40.2284736,-75.2820167,3.5,42
gzhsBLH6AG5ssg-O5BSrzw,Big Lug on the Prairie,"7000 Longest Dr, Ste B",Carmel,IN,46033,39.977844,-86.043062,4,18
TbIm5iOl6G0gXfDpPDeYTg,Charlie Bob's Restaurant,1330 Dickerson Pike,Nashville,TN,37207,36.1968430337,-86.7719751595,3.5,55
Vbdk80DwTyrCYBoEIIyMGA,Oxtail International Cuisine and Juice Bar,1441 Synder Ave,Philadelphia,PA,19145,39.9247438,-75.171114,4,8
BapQFhG4J7E__P73yBGOpA,Badass Jack's Subs & Wraps Company,8621 109 Street NW,Edmonton,AB,T6G 1E7,53.5224927,-113.5119621,3,9
2PmIhlF_5BHcRsVZsCtM0w,Chariot Pizza,3930 N Flowing Wells Rd,Tucson,AZ,85705,32.2787553,-110.9944861,3,117
Npw9ponCiJV9tjG5Bsp2Fg,Bistro66,8260 66th St N,Pinellas Park,FL,33781,27.8470217,-82.7289792,4.5,7
BGVE8k_zp_duyW-Ij7pTdg,Demills Family Restaurant,6501 Park Blvd,Pinellas Park,FL,33781,27.8394423,-82.7264632,3.5,10
yoS-4wkVn6StLiK3RL1bSw,Cafe Napoli,7754 Forsyth Blvd,Clayton,MO,63105,38.650461,-90.336782,4,241
A9rVxmIBtHZRvNhbBaGAWg,Szechuan House,2022 Nottingham Way,Hamilton,NJ,08619,40.2333728,-74.7086953,4,213
642IgLN1a8kjDIeAkaps1A,Los Amigos Restaurant,17 7th Ave NE,Ruskin,FL,33570,27.7240414286,-82.4329638891,4.5,283
tGK86wEGgZoCFGdC9FiYtA,Lotus Express,4200 Jim Walter Blvd,Tampa,FL,33607,27.964915016,-82.5207692469,2,19
tMGpWQB6vYRSLvP4wLrXyw,Quintessential Dining & Nightlife,149 N Main St,St Charles,MO,63301,38.7820988,-90.4809048,3,175
FwwbaUc7u5nSiLmkF_Z1Tg,La Citadelle,1600 Pine St,Philadelphia,PA,19103,39.9459061,-75.1684578,3.5,84
QwIoMcD_Nd7DV7o-rmr2ug,Double Dogs - Sylvan Heights,4017 Charlotte Ave,Nashville,TN,37209,36.1522058,-86.8350762,3.5,151
sCbv0Dq62IXCMOCK8si3Xg,Two Cousins Pizzeria,9277 Seminole Blvd,Seminole,FL,33772,27.8571294509,-82.7866521478,4,37
Tf8KLsWjf24FiGcZh6FD-Q,Rawk Star Cafe,"4011 Tampa Rd, Ste 11",Oldsmar,FL,34677,28.0375497,-82.6581055,5,168
VymPe2QIxLcb3KO0xqRd8A,Dunkin,1066 W Grant Rd,Tucson,AZ,85705,32.2507107869,-110.9881387489,3,10
4RLS-xn9hHxm8-HTLXf8Og,Maria's Mexican Restaurant,2905 US 40,Verdi,NV,89439,39.513715,-119.951518,4,97
Vs1GKzhgYLBthayVNuIbGA,La Rumba Bar and Grill,3435 State St,Santa Barbara,CA,93105,34.4399905,-119.7380194,3,13
OSkLTJeSDAqdcfPGLPj81A,Chopstick House,"3538 Murfreesboro Pike, Ste 307",Antioch,TN,37013,36.0528242,-86.6170434,4,78
ZY2feSm2sc5nTXYHnKpMGQ,Vitascope Hall,"601 Loyola Ave, Fl 3",New Orleans,LA,70113,29.9498668241,-90.0768943828,3.5,146
Vi8hqf6BVnc-6lUia389iA,Norton's Cajun Corner,730 Carroll St,Saint Louis,MO,63104,38.6106494,-90.2010599,4.5,6
o2i4AvqF6Q9lWK-wksxzuw,Legal Sea Foods - King of Prussia,680 W Dekalb Pike,King of Prussia,PA,19406,40.088868896,-75.3861084644,3.5,377
t_yrGGMDQOJ40U54F4gOEw,FlamentCo's The Place,418 S Tucker Blvd,St. Louis,MO,63102,38.6240253581,-90.1993389,4.5,8
1CcGm-DnoDQKx1Myi3ABQg,Nhon Hoa Sandwich Bar,10154 82 Avenue,Edmonton,AB,T6E 1Z4,53.518302,-113.493333,4,40
Sh9_RIUFGWkFjud18WZZ9Q,KFC,8820 E 21st St,Indianapolis,IN,46219,39.796978579,-86.012743,1.5,9
1bJxvwuMTyXmQGu90WLPhA,Firebirds Wood Fired Grill,1501 Beale St,St Charles,MO,63303,38.766872,-90.493852,3.5,417
0xy7fk_yHaHbapJ1FS_ZJA,The New Maple Hill Restaurant,701 E Main St,Maple Shade,NJ,08052,39.956659,-74.991745,3.5,36
cBHzDxKCsosdDI4UR3w-eg,The Family Wash,2038 Greenwood Ave,Nashville,TN,37206,36.188465,-86.729553,4,86
hXL6oSqDFIp8DWQzR35QKQ,Dunkin',7300 Rising Sun Ave,Philadelphia,PA,19111,40.0618034,-75.0840422,2,6
phrcCEjmi43udsQgxWtsEQ,Ramada,15004 Yellowhead Trail Nw,Edmonton,AB,T5V 1A1,53.582316,-113.579614,3,6
K5WTakHfyimdWZ87QJJPUg,Earl of Sandwich,,Bensalem,PA,19020,40.120781579,-74.9520568785,3,6
DVub5FvGoi12BnW4uq8yRA,El Birdos Cantina,"601 Clark Ave, Ste 103",St. Louis,MO,63102,38.6236723,-90.1916746,2.5,7
s55Hw6gHhQzZctinFhPu-g,Urban Eatery,3400 Lancaster Ave,Philadelphia,PA,19104,39.9570681,-75.1916189,2,9
N4IFNpTn7kKfK9akJkerwQ,Gratzzi Italian Grille,211 2nd St S,Saint Petersburg,FL,33701,27.7691918,-82.635785,4,494
r8DNf74pfvCdy29fGuwAoA,Pieces The St. Louis Board Game Bar & Cafe,1535 S 8th St,St. Louis,MO,63104,38.6112054,-90.2008479,4.5,228
Hy7qQD2n0ujHFqt2Z0MBmQ,Gateway Arch Riverboats,50 S Leonor K Sullivan Blvd,Saint Louis,MO,63102,38.6245610534,-90.1846302613,3,72
k93U5RS4ohNqk9912QcyOw,Capriotti's Sandwich Shop,4132 Ogletown Stanton Rd,Newark,DE,19713,39.685743,-75.683828,2,13
l4glnwPAOFGAHxKC3TziLQ,Humpty's Family Restaurants,5011 130 Avenue NW,Edmonton,AB,T5A 3L7,53.5895251826,-113.4196844464,2.5,9
dUDQHe-7bsooRbSFLgSqgw,Gaetano's,2843 Tyson Ave,Philadelphia,PA,19149,40.0394382,-75.0563171,3,5
GIRFpGtBBrUuXt8k9yUf6Q,People's Pizza,1500 Rt 38,Cherry Hill,NJ,08002,39.9377689,-75.0351717,4,105
nPThV_rUBGyscA5setQtfg,SZNL Cafe and Market,14 W State St,Media,PA,19063,39.9178882,-75.3901593,4.5,12
_kMxqmHYnF1LhTvHioykQw,Billy Burk's Snack Shop,1919 Billups Ave,Saint Louis,MO,63113,38.6586559,-90.2414602,4.5,5
mRpk0A4u0hnF0lNe1h4hGg,Bearcat Cafe,2521 Jena St,New Orleans,LA,70115,29.935642,-90.1041242,4.5,886
VT2InhWIw58QEjQlMi5cMg,VooDoo Saint Louis,1229 Washington Ave,St. Louis,MO,63103,38.63204,-90.197417,1.5,12
ksisjnLbytLO8wlbxPZoCg,Yummy Asian,479 S Oxford Valley Rd,Fairless Hills,PA,19030,40.1721617,-74.8500336,4,51
Co3Ogqy6y2JgZdG0wBlrUQ,Ten Stone Bar & Restaurant,2063 South St,Philadelphia,PA,19146,39.9450458,-75.1769728,3,300
sxBJ4-kvlc5DMj2qakOUzA,Melting Pot,1219 Filbert St,Philadelphia,PA,19107,39.9532600406,-75.1608015159,3.5,156
IE-5GIHlAINr0zO4lrJ_Lg,I Dream of Weenie,113 S 11th St,Nashville,TN,37206,36.1766717,-86.7498578,4.5,213
qsAZNQ-6P4I9r7onkBZJ_g,Percy Street Barbecue,900 South St,Philadelphia,PA,19147,39.9425847,-75.1570964,4,794
wsWJg0T8_-MtklUyLfUn4A,Doghouse Gourmet Burgers,"Firecreek Rest & Bar, 13109 Town Center Blvd",Voorhees,NJ,08043,39.8517134,-74.9991723,4,9
g0UI4VuBBTvNow0-HW58sA,Good Spoon Soupery,1400 N Front St,Philadelphia,PA,19122,39.9720325,-75.1354214,4.5,138
pCUMtXfRIGeDtp3S5jjshQ,White Castle,1404 Broadway,Nashville,TN,37203,36.1562562,-86.7904781,2.5,115
X0hWkMBvDTPz2oJwkHajmg,Carosello Pizza & Pasta,835 E Clements Bridge Rd,Runnemede,NJ,08078,39.8571666,-75.0637612,4,15
Q1wTWAhOaoOZQRiGeL6N7g,Chinatown Restaurant,"3900 Hillsboro Pike, Ste 8",Nashville,TN,37215,36.105801,-86.813241,3.5,193
NKlljVV7HlgLWSsqWY5Fiw,Arby's,7401 N La Cholla Blvd,Tucson,AZ,85741,32.343519,-111.0132077,1.5,5
t1mWfxivNyGde5VxYYYhSA,Cafe Korea,11003 Allisonville Rd,Fishers,IN,46038,39.9495104,-86.041926,4.5,318
ukt4QdEiwDubi991eF75TA,Paseo Tapas Bar,726 N 24th St,Philadelphia,PA,19130,39.9684914,-75.176962,2.5,11
s7UTIHPXn_RhHEg4pPd9Pw,Taco Bell,361 Harmony Rd,Gibbstown,NJ,08027,39.817545,-75.2600732,3,6
pbcIgKDyOvecndwTOBgDPg,Cafe de Thai,420 W Cypress St,Kennett Square,PA,19348,39.8448059,-75.7169098,4,124
_y2tYgFNLM7HR7fYylDcBw,Johnny Bronx Pizza,4970 N Linder Rd,Meridian,ID,83646,43.6497677809,-116.4131909421,4.5,94
HidFnrnlxOEbGzg0Xog71g,The Holy Roller,8222 Gateway Boulevard,Edmonton,AB,T6E 4B2,53.5187305,-113.4952523,4,59
K5zbuIW7n2n9DEfubAyMNg,Zivaz Mexican Bistro,4590 E Broadway Blvd,Tucson,AZ,85711,32.2211714,-110.8947905,3.5,165
ffi48yk8tmg6NY9iIKZBBQ,Media Bean Cafe',204  S Newtown Street Rd,Newtown Square,PA,19073,39.9768787,-75.3984844,4.5,31
QfAKNFoEJsN3ILYj-d59lQ,Crown Fried Chicken,2216 34th St S,Saint Petersburg,FL,33711,27.7476263,-82.6789419,3.5,7
oLT78MXXeVeaJLMcbV8m3Q,Asiana Garden,7930 Olive Blvd,Saint Louis,MO,63130,38.6724501464,-90.3410442295,3.5,27
FH1sTH13rupNdANai7JFxA,The Bourbon Room,4444 Hollister Ave,Santa Barbara,CA,93110,34.440628,-119.771923,4,109
4jHzSWL5d2VMDWntJJ8LqA,Arisu Korean Restaurant,1002 W Skippack Pike,Blue Bell,PA,19422,40.159746,-75.2782812,4,56
mqGtDoC2zgjcRZJ79iiBJA,Joyce's Soulful Cuisine,5934 Chestnut St,Philadelphia,PA,19139,39.9601369,-75.2404909,3.5,11
gLhl-yhJ8v15Bt8edl4T3g,Ha Long Bay,5944 34th St N,Saint Petersburg,FL,33714,27.8275700853,-82.6799391314,3.5,292
aneH2uJ0sIF_nYfYYNXhhQ,Caffe Connection,4196 Mariner Blvd,Spring Hill,FL,34609,28.4929078,-82.539755,4.5,16
3uLXZMnm68l1YwI8_FaFNA,Bangkok Thai 9 Cuisine,2028 Chestnut St,Philadelphia,PA,19103,39.95196,-75.174711,3.5,91
uFr4OHCMb0QOIHeoIrkeQg,China Garden,8003 MacKenzie Rd,Saint Louis,MO,63123,38.565291,-90.321611,2.5,35
lJ2inU6x-_rS27VfpTWGuQ,Carrabba's Italian Grill,10110 US Hwy 19 N,Port Richey,FL,34668,28.3044046,-82.7020432,3.5,97
kBbNlvMglJRrPmlpdCHLuw,Ybor Eats,1604 N 17th St,Tampa,FL,33605,27.9590802,-82.4406146,4.5,43
-1MhPXk1FglglUAmuPLIGg,Red Garter Saloon,3143 E Speedway Blvd,Tucson,AZ,85716,32.2363608,-110.9252135,4,107
s6TlqDvaiNtswLKfKHfEDw,Burrito Libre,2024 Sherwood Drive,Sherwood Park,AB,T8A 3H9,53.528555,-113.294877,4,23
6fjUPCJx12TYkQxyio1oVQ,Carl's Jr,1195 Kietzke Ln,Reno,NV,89502,39.5133134662,-119.7896867,2,49
J5Ov2OoqugYvJaWKXh_ZIw,Chick-fil-A,3360 W 86th St,Indianapolis,IN,46268,39.912186,-86.218984,4,78
-e6JPq8mFkMQQoWyANSgrQ,The Fish Guy,4114 Grand Blvd,New Port Richey,FL,34652,28.2186775,-82.7227226,4,143
hgPKpBdUOx2hVyGrzY70yQ,The Sandwich Factory,500 S Meadows Pkwy,Reno,NV,89521,39.4380049,-119.7610165,4.5,114
_zGqgGnSot3T47KxRkdH3g,Wendy's,1615 West Kennedy Blvd.,Tampa,FL,33606,27.9450144,-82.4751008,1.5,42
xuUbCSnapfaDZpa0PmEc6A,Alma's Tex Mex Restaurant,15 S Main St,Yardley,PA,19067,40.2420703,-74.83875,2.5,15
AfJGl98uhjhRTYJbhDPuuQ,Asian Cafe,709 S Broadway,Pennsville,NJ,08070,39.613145,-75.504503,3.5,12
W73MZDetxHWJ3pkq36OpEA,Masterp1ece,1340 S Carrollton,New Orleans,LA,70118,29.94878,-90.12844,4,70
m5z9UHmdTakFjEy6rYWpCQ,Wabi Sabi,1776 E Lancaster Ave,Paoli,PA,19301,40.0416188,-75.4738039,3.5,43
AFjcOl8CnSdWpk9R3oR7vQ,Pizza Hut,710 North Black Horse Pike,Mount Ephraim,NJ,08059,39.8881777,-75.0883536,1.5,6
LSzIBMNusjAmS0F87CM8fg,Aussie Grill - Brandon,1426 W Brandon Blvd,Brandon,FL,33511,27.9382448,-82.3053489,4,26
WyV5R02-feXJUTIs53Cm-Q,Coco's Italian Express at the Green Hillsall,"2126 Abbott Martin Rd, Ste K100",Nashville,TN,37215,36.1072537743,-86.815708673,2.5,7
YhbpWF27GHGGUd_-y8-BUA,American Kolache,6189 Bennett Dr,Edwardsville,IL,62025,38.7939,-89.976023,4.5,7
0VYfnlvP5LsCEennaTYJkw,Newbolds Food & Libations,211 York Rd,Jenkintown,PA,19046,40.0947925675,-75.1257710998,4.5,37
0oX6TJp-yldw9ZNl0ACd8A,Murph's Corner Brew,"7709 W Overland Rd, Ste 160",Boise,ID,83709,43.5890440912,-116.2781071295,4,36
lnhPbN6idRuYQrdG-XLWgw,Painted Cottage Cafe,719 Haddon Ave,Collingswood,NJ,08108,39.916457,-75.0680299,3,6
KUsWK0Vk4npG5gcLVlSAJg,Big Dan's Hamburgers,5925 Massachusetts Ave,Indianapolis,IN,46218,39.8176596,-86.0655255,3.5,32
EvC-VdZwoUToLcjUtcntqQ,Hanamura,901 Embarcadero Del Mar,Isla Vista,CA,93117,34.412861158,-119.8572218791,2,14
nvgYnJgC_xsIKdpl6Zvb0A,Chick-fil-A,1170 White Horse Rd,Voorhees,NJ,08043,39.8527462,-74.9841831,3.5,49
GkuKfHyDtTeBlB0BAC_u1g,Southerner's Coffee,328 5th Ave N,Franklin,TN,37064,35.9283666597,-86.873760107,4.5,13
d5gNZfKLqCKmqV0PmxgXYw,Tropical Escape Tiki Bar & Grill,"4 Club Center Ct, Ste A",Edwardsville,IL,62025,38.7779486,-89.9846396,4,13
T3EnbJYkiMHutSxh0asEfA,Tutto Fresco - Italian Eatery,514 Philadelphia Pike,Wilmington,DE,19809,39.7682362,-75.5049676,4,71
2dVJ7R-3JMmu2v4DJYtBbw,Spring Mount Hotel,3 Main St,Schwenksville,PA,19473,40.275532,-75.456772,2,5
P4VXmpHxgVQ2iEywgHU2nA,Alarz Restaurant & Grill,2088 Street Rd,Bensalem,PA,19020,40.0988171,-74.948665,4.5,59
a3k17xVeU38IlhsyKpz5zQ,Panda Express,500 Route 38,Cherry Hill,NJ,08002,39.936833,-75.045892,2.5,34
jrbiSBf8_0QcgYu3m6cOAQ,Family Market & Restaurant,5450 E 5th St,Tucson,AZ,85711,32.2286117,-110.8763868,3.5,6
o3EJgHz8LX5NnL9etByEdA,San Carlos Grill,Oro Valley Marketplace,Oro Valley,AZ,85737,32.397936,-110.967121,2,48
YdFwLmK3Ag_np1H1YVT58g,Encima,112 S 18th St,Philadelphia,PA,19103,39.9512983694,-75.1706467196,4.5,12
_Mbw_orl5EdXJP1XzklQvA,Mimi's Cafe,5090 Kietzke Ln,Reno,NV,89511,39.4759087,-119.7924073,3,338
5RtAJPXFLTzwALIe1mtNuA,Piree's Piri Piri Grill,5335A Limestone Rd,Wilmington,DE,19808,39.7470696,-75.6986818,4,77
Ojd913yxClnEwQSthSd8XQ,BarBurrito - South Edmonton,2213 98th St NW,Edmonton,AB,T6N 1K7,53.4531516,-113.48298,3.5,8
BuEEKAmr1JDfhwG8Q0ODoA,Marino's Deli,5910 Torresdale Ave,Philadelphia,PA,19135,40.017289,-75.060404,5,5
JhwFBmMtZUejWLuEQfGoTg,Los Comales,1202 139th Ave E,Tampa,FL,33613,28.0738053,-82.4468235,4.5,19
j8ByxvLNj0ycQvDm4Q48Tg,Mis Antojitos Mexicanos,3410 S Kings Ave,Brandon,FL,33511,27.8930620915,-82.293536067,4,24
hQ-KmPbjimgHM-X4jgQovw,Cupcake Fetish,2286 McKelvey Rd,Maryland Heights,MO,63043,38.721555,-90.447748,4.5,21
6sPsShCjU5L_DiV5VoLfvA,Bobby D's,159 S Pemberton Rd,Pemberton,NJ,08068,39.9684,-74.7081,4,7
vEfyDHrxWN0pfuCRNlocJw,Papa John's Pizza,4004 Hillsboro Road,Nashville,TN,37215,36.103883,-86.814791,2.5,13
xGU7gjQxdOk8DJSSwRLiNA,Woogie's Wood-Fired BBQ,"1432 E High St, Ste 400",Pottstown,PA,19464,40.243146,-75.617785,2.5,20
3Byba3WKLqjabVunNItQcA,Nola Grocery,351 Andrew Higgins,New Orleans,LA,70130,29.9421382489,-90.066870153,4.5,31
Dp-LA9EkHwXMpfnygOzPxw,SK Pastrami & Things,24 S 18th St,Philadelphia,PA,19103,39.9524016,-75.1704199,4,45
e7q6fHkgRCZQpKRuKlxD0g,Burger King,4008 Chippewa St,St. Louis,MO,63116,38.5891602,-90.2546065,3.5,8
GC_pZfQOAFBtHmqjYr_9HQ,China #1,2012 Dorsett Vlg,Maryland Heights,MO,63043,38.715046,-90.4564846,3,40
OAbrYeHibZHdv3ch8nOrbw,Dutch Bros Coffee,1589 N Wildwood Way,Boise,ID,83713,43.61918,-116.3210243761,4,9
9oJinxECxlSutUM0kBOixw,McDonald's,1810 Silverada Blvd,Reno,NV,89512,39.5457533163,-119.7811111808,1.5,34
4LwPuqOb-0PIDxxxrts9rg,Sola Bistro & Wine Bar,6700 Gulf Blvd,St Pete Beach,FL,33706,27.7370613,-82.7485156,4.5,205
L6nIOUwcTGgQKExGHmvTzQ,Noodle City,5869 Hollister Ave,Goleta,CA,93117,34.435791,-119.828303,3.5,480
ZmvCkhsCOWqA7ikXlbIr2g,Vals,4632 Freret St,New Orleans,LA,70115,29.9348117,-90.1061241,4,116
e5gOtAH36l70fexYypnG5Q,El Mezon Del Cobre,2960 N 1st Ave,Tucson,AZ,85719,32.260584,-110.9605172,3.5,17
bk8ECmNb5FaOCsiTMoJUWQ,Dragon Fire Grill,3426 East Busch Blvd,Tampa,FL,33612,28.0373205043,-82.4229719995,3,17
Iw0UBZRhFTENuD0QVX0G2g,Miki Sushi Express,13508 Victoria Trail,Edmonton,AB,T5A,53.5973817523,-113.3876350554,4,15
cVqUwNviD4Kxf5Nnyyxe2Q,No 1 Chinese Restaurant,1483 Nashville Pike,Gallatin,TN,37066,36.360032,-86.49542,2.5,22
t2N3Hwq32Mpu5P8HhrD-xg,Greek's Pizzeria,260 Southbridge St,Mooresville,IN,46158,39.6015054,-86.3723136,2.5,10
ez1xAIwSguvgj3F8B7uJsA,Pepperoncini Restaurant & Bar,72 Poplar St,Conshohocken,PA,19428,40.0724915206,-75.302182764,4,244
5Ct_XEDzxkyq6HhGOuwH_Q,Sonny's Phat Pizza & More,1350 Stardust St,Reno,NV,89503,39.5286539739,-119.8338164516,4,6
E3QSrua1cXWaurPitBhKGQ,El Sur Restaurant,5602 E 22nd St,Tucson,AZ,85711,32.206604,-110.8727298,4,425
m4S44MFZdnYmVawzn46jGA,Stingray's Grill & Bar,1303 W Esplanade Ave,Kenner,LA,70065,30.0192042,-90.2509324,3,124
zLbDAJyWh5dFFqKj27rmDA,New China,1207 Macdade Blvd,Collingdale,PA,19036,39.9085562,-75.2854107,2.5,14
nuJuxLxqmHLlHifudJoTFg,Fuddruckers Restaurant,1170 White Horse Rd,Voorhees,NJ,08043,39.8526366,-74.9843587,3.5,11
dZFlKW6M5YIhPHrLhsdCTA,Taco Bell,3121 Dickerson Pike,Nashville,TN,37207,36.23143,-86.75878,3,15
eHRzuUXA2jrR99ecioWU4g,Union Ale,214 State St,Santa Barbara,CA,93101,34.414427,-119.691952,3.5,207
SDMyWwgq8OrT_AIx5K6j6w,My Friend's Tavern,315 E Main St,Collegeville,PA,19426,40.1864106,-75.4518378,4,37
ncr8NT-DuwqI6rIoAayHQw,AFC chicken,2435 17 Street NorthWest,Edmonton,AB,T6T 0Y2,53.4561664,-113.3670393,3.5,12
boKv2_AvOSF2JRwrSoRI3g,City Greens,5161 Citrus Blvd,New Orleans,LA,70123,29.9641645208,-90.1868913609,3.5,113
wAQUhOCIDJpTQqtVySn-LA,Deep Indian Cuisine,14096 Trade Center Dr,Fishers,IN,46038,39.993142,-86.0054292,3.5,6
6iHvWggONIDt8cKXJGz0VQ,The Madison,33 Lafayette St,Riverside,NJ,08075,40.0385656,-74.9607611,3.5,112
BdyPaxmB3O9Ngp9W09GrjA,TonyRay's Restaurant & Cantina,731 De La Guerra Plz,Santa Barbara,CA,93103,34.4196391722,-119.6986848651,4,8
Gn_e8TJFSMcV1rzklJ9gLA,Erin Pub,36 W Winona Ave,Norwood,PA,19074,39.8907502,-75.3007882,4,153
GS2YlV1TYdqYePp-qcsSjg,20th Hole Bar & Grill,8342 New York Ave,Hudson,FL,34667,28.3747192,-82.6765444,3,22
bP0Xr_uQLPUdIdRFYU4K6w,Firehouse Subs,2227 Dale Mabry Hwy,Tampa,FL,33629,27.924929,-82.5061838,3,29
CPV0FlumNtTphlD5XugGVA,Nico's Cheesesteak Factory & Pizzeria,5830 Gall Blvd,Zephyrhills,FL,33542,28.2423027,-82.1865094,4.5,30
lqMOJ_cVSvVU-lferJVPLg,La Pizzeria Metro,3101 Miller Rd,Wilmington,DE,19802,39.766075532,-75.5374733359,4.5,94
yui1n1JawiW9g7RR62a_wA,Matoi Sushi,602 N Dale Mabry Hwy,Tampa,FL,33609,27.949494,-82.506132,4,594
Sad6etx6kKYxrpvWcd11MA,New Orleans Hamburger & Seafood Co,541 Decatur St,New Orleans,LA,70130,29.9559347,-90.0636824,3.5,370
OINbC0rpDVJ5bfxt3LO9fw,Li'l Dizzy's Cafe,1500 Esplanade Ave,New Orleans,LA,70116,29.9686422,-90.0679433,4.5,651
n3MqfmTDhhvNG2jZXiFDpg,JinJu Korean Grill & Sushi,2700 34th St N,St. Petersburg,FL,33713,27.796456,-82.679933,4,66
BkTFtgkkOva49Dj3MIPN0Q,Lima Pizzeria,"1165 W Baltimore Pike, Ste B",Media,PA,19063,39.913341073,-75.4374153596,3.5,32
0k98fRZ0G1ZVfPrKA_lCVw,Southern Charm,2020 Belle Chasse Hwy,Gretna,LA,70056,29.8906279,-90.0348126,4,42
2QGyW4T6E_4iSltdx9i2RQ,Pascal's Manale,1838 Napoleon Ave,New Orleans,LA,70115,29.9292896412,-90.1027699411,3.5,515
fMT4FVdoM0XuaBLXfwlibw,Athens Greek Cuisine,901 Rock Springs Rd,Smyrna,TN,37167,35.9839284,-86.5470268,4,35
cz0sBSp8G2R2dqE6cccbuw,Wit or Witout Cheesesteaks,7352 Frankford Ave,Philadelphia,PA,19136,40.0378039,-75.0387664,2.5,37
DXdqMi16GRc7oMUSFmjIfA,Kidds Chicken And Waffles,301 N Pine St,Wilmington,DE,19801,39.7374583,-75.5456287,2.5,5
lFYqN66bnwx8MiaIAtesoA,Perch Pub,1345 Locust St,Philadelphia,PA,19107,39.9482894,-75.1639634,3.5,295
sNHhtE1QRoEKWfcUTCjOrA,Papa John's Pizza,6001 Ridge Avenue,Philadelphia,PA,19128,40.0321044,-75.2130364,2,28
S457rz-XJp56seb4vzMrEQ,Dollar Express Chinese restaurant,10041 Page Ave,St Louis,MO,63132,38.6910299765,-90.3829482076,4,67
RKfpN_TqD3wa58kgvnR1lQ,Taco Bell,4713 Veterans Memorial Blvd,Metairie,LA,70006,30.005387,-90.18578,2,30
CLt1k_vtdU962GZGl5U48g,Kitchen K,1000 Washington Ave,Saint Louis,MO,63101,38.630971,-90.194489,3,33
NFXvrdA_TUepcGAsHzjbgQ,Tim Hortons,11240 Groat Road NW,Edmonton,AB,T5M 4E7,53.5611396,-113.5522215,2.5,9
HTNwzJFAIxKOnmjYJhHgYg,Sunset Sushi And Thai,"1031 Riverside Dr, Ste G",Franklin,TN,37064,35.911931,-86.8283860668,4,28
PG2bFg_eQgec91Jf5AXRfA,Pinchers,14391 N Dale Mabry Hwy,Tampa,FL,33618,28.0783633,-82.5061947,3.5,132
Mg2MJ_emO7MtPSkFqClC4Q,Burger King,6417 Hwy 41A,Pleasant View,TN,37146,36.3982723996,-87.029529389,2,11
RF2SocELaoYkXnZhxRcX0g,Gallagher's Restaurant,114 W Mill St,Waterloo,IL,62298,38.3358432,-90.1511628,4,162
FhMgmJRTIC4mCazlMA5fEw,Manhattan Bagel,1301 Skippack Pike,Blue Bell,PA,19422,40.1673907,-75.2874704,2.5,5
aSNfp8Fp5V6EQJwZOicQkQ,Jimmy John's,18601 Wedge Pkwy,Reno,NV,89511,39.3913998,-119.7674723,3,73
UiALq7G2d9w1S7fvZEv6TA,Twin Dragon,"1075 N Hills Blvd, Ste 200",Reno,NV,89506,39.60524,-119.841016,2.5,101
WdhlZkEL2iuTbYCk3KzHtw,Domino's Pizza,7325 Castor Ave,Philadelphia,PA,19152,40.0522496,-75.0647038,2,17
L4qejilvaLOh-QfF9dUX9Q,Downingtown Country Club,93 Country Club Dr,Downingtown,PA,19335,40.013066,-75.682384,2.5,12
4iRzR7OaS-QaSXuvYxEGKA,Super Dog,1160 Gallatin Pike S,Nashville,TN,37115,36.2485696,-86.7199857,4,6
26jYcdFR5oLqKDKpTH0JIQ,Drago's Seafood Restaurant,3232 N Arnoult Rd,Metairie,LA,70002,30.009132,-90.1609298,4,1178
usBCRbMbDpmhUmoWWvw49g,Row Boat,1820 N 15th St,Tampa,FL,33605,27.9609019,-82.4430804,4,56
qSy3Ue3KlzFFXBKwZTbofg,Fort Taco,8106 Manchester Rd,Saint Louis,MO,63144,38.6115411,-90.3371705,3.5,188
UGZZVg5iOT-Q9PfoST38oQ,Main Garden Chinese Restaurant,5150 N 5th St,Philadelphia,PA,19120,40.0300222,-75.1321794,3.5,8
WuJrMf127hXA4CY79mtoIQ,Beijing Inn,812 W Lancaster Ave,Bryn Mawr,PA,19010,40.021322,-75.318661,3,14
W_B1ffzD0pHmQYEwGG_8Qw,Azadi International Food Market,391 Elysian Fields Ct,Nashville,TN,37211,36.0874227,-86.7290438,4,24
p7tSGmWpFV246aYhwODgBg,O Sushi Restaurant,4689 E Speedway Blvd,Tucson,AZ,85712,32.2369439,-110.8929649,4.5,199
qCojkwO9wJX7alM-x-DJcA,Willi B's Saloon,12505 W Chinden Blvd,Boise,ID,83713,43.662045,-116.3380704,4,33
khrsucGZVLi63WXhIFbAkQ,Vincent's Pizzeria & Grill,500 Gravel Pike,Collegeville,PA,19426,40.2183989,-75.4532033,3.5,44
7FiUgTQ9dEUvrfxwn7dqQA,Sam Adams Pub,4200-5052 Airport Pkwy,Clearwater,FL,33762,27.9066002613,-82.6908016047,2.5,10
7dYcQH7dWXXZxM27ig9a7g,Tasty World Chinese Food Restaurant,4347 50 Street NW,Edmonton,AB,T6L 7E8,53.481335,-113.4169774,2.5,11
YSKUg2V5dt1BazwipvPZuw,Timothy's The Restaurant,12710 Olive Blvd,St Louis,MO,63141,38.6792616,-90.4720434,4.5,54
G1fQJ8k5U1gdX0vWODCZYA,Cafe Nino,1510 S Carrollton Ave,New Orleans,LA,70118,29.949863,-90.1274815,4,63
kOyh1SCoeeT-5bc-Ds0tXw,Wendy's,400 N. Main Street,Doylestown,PA,18901,40.3194216,-75.131119,2,27
jgi-7LWLzcGkPvqFryqI6A,Dunkin',7221 Torresdale Ave,Philadelphia,PA,19135,40.0296217,-75.035676,2,6
J-DcG4thLy_jbmQggUTrQQ,Buffalo Wild Wings,26725 Florida 56,Wesley Chapel,FL,33544,28.186861,-82.3725244553,2.5,178
S8tjrvevZV9M9kku2D5cvw,Cricks 54,8525 Old County Rd 54,New Port Richey,FL,34655,28.2170946,-82.6733585,3.5,8
nUA9jFxdHTNCpBpandn6eA,Whitey's Fishing Hole,1026 Avenue A,Marrero,LA,70072,29.8928317,-90.09304,5,6
Tpr8CltepNzpRpQC2JM4pQ,Sage & Onion Cafe,5599 Hollister Ave,Goleta,CA,93117,34.4354248,-119.8203955,4,90
1j7Y1eek07NRv_SkBOJFgA,The Ridley House,2107 Mac Dade Blvd Holmes Pa,Holmes,PA,19043,39.8975228,-75.3113806,3.5,45
3ESm27p4DACKCpzZmiRxgw,Mala Town,6555 Pardall Rd,Goleta,CA,93117,34.4129983926,-119.8564884362,4,5
Se9CEgJEVxcWax1fStWuQA,The Half Shell On the Bayou,2517 Bayou Rd,New Orleans,LA,70119,29.9762915,-90.076373,3.5,116
k1bbiAV-1yQ89b8ZegL_LQ,MOD Pizza,522 W Lancaster Ave,Wayne,PA,19087,40.0451847431,-75.4036317333,4.5,28
7McQCpcpjyAA_TaQPlsirg,Miller's Ale House,554 Fellowship Rd,Mount Laurel,NJ,08054,39.9316742355,-74.9592295843,3,362
_40CSZCKamFvHGZXaVaGXQ,Samosa House,9405 118 Avenue NW,Edmonton,AB,T5G 0N5,53.5702884,-113.486021,3.5,6
hxJ47I__S_gx3z1_yEC0cA,Panda Express,10771 Big Bend Rd.,Riverview,FL,33579,27.791784,-82.3296926,1.5,29
TPFy-Bj2HID_gMw_UUxc1A,Tgi Friday's,4901 E Broadway Blvd,Tucson,AZ,85711,32.2221604,-110.887425,2.5,16
a8lpo_f90MkG38-g6Dv6dw,Manayunk Café,3722 Main St,Philadelphia,PA,19127,40.0154121,-75.210575,1.5,17
LC40v_OUVWNmOsCI44cS2g,Sunoco Gulfport,5150 Gulfport Blvd S,Gulfport,FL,33707,27.7480424,-82.7034979,2.5,10
5GZOor47iDvcz3r587ja5Q,Long John Silver's,218 Lincoln Hwy,Fairview Heights,IL,62208,38.5924548,-89.9802147,3,6
6KIRlWAwkszRCu4WoMvQzQ,Trip's Diner,2339 Dr Martin Luther King Jr St N,St. Petersburg,FL,33704,27.7937428,-82.6465296,4,489
HbZDCqcp3wWEJ21M9sfTXw,Orchids Thai Restaurant,8647 Regency Park Blvd,Port Richey,FL,34668,28.2828536,-82.6975165,4.5,143
wrbtvUF0GA9QR4E8P4yMGQ,Quiznos,5971 Cambridge Way,Plainfield,IN,46168,39.6756524,-86.3691956,3,12
gDpUnOqTZClHHLp2UXqdig,Roma Pizza & Pasta,3101 Clarksville Pike,Nashville,TN,37218,36.1918778,-86.8292071,2.5,26
PrVxUo7g46GNf_1uusxaqQ,The Blind Pig,"943 E University Blvd, Ste 115",Tucson,AZ,85719,32.232085,-110.957217,3.5,59
uEs_RuMTIVRMc-tAaXqk-A,Mama Doughs Take N Bake Pizza,6434 Nolensville Rd,Nashville,TN,37013,36.0133732,-86.7042496,4,9
sTo-Xzn4MfpglsRnZggDVw,On Site Bites,"53 Century Blvd, Ste 140",Nashville,TN,37214,36.1471724,-86.6834329,4.5,13
c_wtRXGCqephjiXHymZ5FQ,"Amarilis Cafe Lansdale, Pa",312 W Main St,LANSDALE,PA,19446,40.2433469637,-75.2871088752,4,22
gZPFgzPKJYAvobR77Q97WA,Back Yard Burgers,2744 Elm Hill Pike,Nashville,TN,37214,36.1492171252,-86.6673651,2.5,50
-NXRuUsazxXZZ_OHwmtYtw,Uptown Bar & Lounge,3126 State St,Santa Barbara,CA,93105,34.4406064,-119.7321808,4,138
h-Ypo3j3_8SmzSP6TzNmsA,Philly Grill & Pizza,"415 Egg Harbor Rd, Ste 6",Sewell,NJ,08080,39.7477896,-75.0757824,3.5,6
21IkQYUsyfl8MWYy_wQxfw,Jimmy John's,"600 Canal St, Suite 102",New Orleans,LA,70130,29.95229,-90.068564,2.5,18
D4UMA28VYhKUU59KXZTiQQ,Dandgure's Classic Southern Cooking,538 Lafayette St,Nashville,TN,37203,36.1534299,-86.7755495,4.5,63
TqSSwvn8IJhwxjiEdTEcvQ,Kokomos Bar & Grille,1201 Gulf Blvd,Clearwater Beach,FL,33767,27.9535482,-82.8283397,4.5,13
bxffbg7kCn5iHxtdYp7gJQ,Gaetano's,53RD Market St,Philadelphia,PA,19139,39.960337,-75.227589,2.5,10
s5XPPOv9_fsRvSU95K3iIw,The Borough Pub,1800 Farragut Ave,Bristol,PA,19007,40.107006,-74.8420776,4,61
isbeaPln-E0DdffLRsuFhw,Francisco's On The River,1251 River Rd,Washington Crossing,PA,18977,40.3136566,-74.8957796,4,109
9Wq455RePLf5wbp4C4noQA,JA Ramen Curry,2643 N Campbell Ave,Tucson,AZ,85719,32.2551903,-110.9442836,4,153
B9r3AaU6EKStfpXy0iMLOA,Taco Bell,25630 Sierra Center Blvd,Lutz,FL,33559,28.1945183423,-82.3927894157,1,9
snTpO07JxjGhwJbE4RDFIA,Goldy's Breakfast Bistro,108 S Capitol Blvd,Boise,ID,83702,43.6146781,-116.2023897,4.5,949
xFvJazuir9VuVovt315Z9Q,BluWave Sushi Bar & Grill,122 S Howard Ave,Tampa,FL,33606,27.9434579,-82.4827847,4,70
yUNfOLDjpn6rzKop9wqLpg,Schlotzsky's Deli,15594 Old Hickory Blvd,Nashville,TN,37211,36.040485,-86.7431344,2.5,5
Z-BDbsASb0o5Tfgq6Zwe0w,Totai Sushi Express,3808 137 Avenue NW,Edmonton,AB,T5Y 3E7,53.5993383,-113.4000173,3.5,11
_9gsyTPL6TzkhMxymxi8Ng,Two Peters Diner,1769 North Olden Ave,Ewing Township,NJ,08638,40.2483208,-74.7713759,3,36
VbGGpt-Q5ZeMxSFPDbPeBg,Girard Bruncherie,300 E Girard Ave,Philadelphia,PA,19125,39.9697976,-75.1318089,4.5,224
4hH1lt7mHPbl4r2O7LH6nA,Jordan Johnson's Gourmet Seafood,7199 Buselton Ave,Philadelphia,PA,19149,40.0450716,-75.0606831,3.5,128
ydMzeoGgK9WMjomKi3CWNQ,Zoes Kitchen,280 N Sycamore St,Newtown,PA,18940,40.2357829953,-74.9377462967,3.5,114
NFJE7HhYQSUflUkArfVVKA,Sofra Bosnian Grill,3665 E Overland Rd,Meridian,ID,83642,43.589967,-116.348856,4.5,78
0djt76NXDYMtjJvL2rHIQg,Pizza Hut,8245 N Silverbell Rd,Tucson,AZ,85743,32.3564566927,-111.1130926849,2.5,23
nRBYoJP0ergYGJAsfES0OA,Sa Ri One Korean BBQ,1025 W Brandon Blvd,Brandon,FL,33511,27.9364453288,-82.2997316024,3.5,181
hlf4qed6y1eQ9mvnWUU72A,Trattoria Branica,451 S Kirkwood Rd,Kirkwood,MO,63122,38.5754468,-90.4065335,4,11
TPR6xwzHmFiIfJgY8BTncw,Pizza206,1529 Route 206,Tabernacle,NJ,08088,39.853424,-74.734101,4,26
_RPipScNmjl_aTVyDIx94A,Reme's Restaurant,"2683 E Main St, Ste 113",Plainfield,IN,46168,39.716305,-86.3537459,4.5,47
yvpwN5321mM3x8G2ZiEZmw,Little Istanbul,11728 Bustleton Ave,Philadelphia,PA,19116,40.1198872,-75.0180567,4,36
tUtQic1R0uYoJ09xzpNsOA,Rockstone Pizzeria & Pub,1435 East 86th St,Indianapolis,IN,46240,39.9118125833,-86.1360997534,4,56
VJjFHQJ08SR_Pl7Bk4o2xQ,Helm,1303 N Fifth St,Philadelphia,PA,19122,39.971548,-75.144505,4.5,227
nXdBQ2ZHa-77cA5SJT0DjQ,Seagraves Steak & Submarine Shop,1 S Tilbury Rd,Salem,NJ,08079,39.5694441,-75.4920225,4.5,13
94D8kud2TtBJ0dv2bIeuQA,Pita's Republic,10454 Roosevelt Blvd N,Saint Petersburg,FL,33716,27.8669328,-82.6446922321,3.5,43
YK-pF0TjZBu9q6esscCvrw,Jeanne's Meatball Factory,5737 Nolensville Pike,Nashville,TN,37211,36.0464907,-86.7133917,3,11
yUglD4bzupuMzGIvnQguNg,Chipotle Mexican Grill,18019 Highwoods Preserve Pkwy,Tampa,FL,33647,28.1312625,-82.3657804957,2.5,75
XZ1vi4WFF4ba_1pLfKm6-w,Big Bad Wolf Smokehouse Grill,189 N Mount Juliet Rd,Mount Juliet,TN,37122,36.1740537,-86.512624,4.5,162
Hs-jwE791t3cX9ErgTcEFg,Corner Muse,1381 Magazine St,New Orleans,LA,70130,29.9365739,-90.0718067,4.5,52
dkhIHaqr3DqOoTsqTLeUPA,Saharra Mediterranean Cuisine,20 Delsea Dr N,Glassboro,NJ,08028,39.7029873994,-75.1066537018,3.5,15
LmV5J4YpYuVswSc41-qe4w,Mangú Latin Café,"9005 E Adamo Dr, Ste B",Tampa,FL,33619,27.948789,-82.3557969,5,140
5u4nzV_Vpy6ubFM6FXqBNw,Delux Burger Bar,9682 142 St NW,Edmonton,AB,T5N 4B2,53.5344063,-113.5663499,3.5,76
gWV1k7XO9DSAodAlanESFA,San Miguelito Mexican Cuisine,2654 S Sixth St,Philadelphia,PA,19148,39.9153804,-75.1583858,4.5,62
qHU175eb4hSSs-_981ja0A,Buckets Eatery,15024 Madeira Way,Madeira Beach,FL,33708,27.801848,-82.80126,5,43
9B3e-1Y13XJ1RabUpCuUnw,John Henry's Pub,98 Cricket Ave,Ardmore,PA,19003,40.006805,-75.2932477,3.5,74
8xTHtLoNIwdpf0FEvIpQIw,By George! Pizza Pasta & Cheesesteaks,51 N 12th St,Philadelphia,PA,19107,39.9532222415,-75.1594696319,4,284
7edT1VJhBzXFm2wkk507Jw,California Pizza Kitchen at Plymouth Meeting Mall,"514 W Germantown Pike, Plymouth Meeting Mall",Plymouth Meeting,PA,19462,40.117321,-75.282309,3,152
_Wjb3f1ueoKVzd5ra_gsHw,Pizza Twist,1505 Bdwy Ave,Boise,ID,83706,43.5942084607,-116.1940403136,4,12
uxymbkaSGa49ngBqUOXsVA,Sonic Drive-In,398 Harding Pl,NASHVILLE,TN,37211,36.0807615,-86.722392,2,19
8BNO6wtIQmArLRPg6jwsNA,Mosiac Modern Fusion,"Lambert - St. Louis International Airport, 10701 Lambert International Blvd",Saint Louis,MO,63145,38.7444441012,-90.3659820557,2.5,11
nmDK6a60DErPjLD9lxcjfg,Rocksy's,3220 Edenborn Ave,Metairie,LA,70002,30.0088411,-90.162093,3.5,61
M2Vgqm4okb8fZKXVMwcXqg,Aston Broaster Chicken & Pizza,4732 Pennell Rd,Aston,PA,19014,39.8594806,-75.4271743,4.5,5
yrr7jg2oC46Bf-xbwtCI7g,Paul Mineo's Trattoria,333 W Port Plaza Dr,Saint Louis,MO,63146,38.7017931394,-90.4474416398,3.5,99
jdx80PbfbXMkUZvhJmdFbQ,Cafe Giardino,1732 W Passyunk Ave,Philadelphia,PA,19145,39.9244035,-75.1755284,5,6
aYHjJJ64whQsxZjx5rUe_w,RA Sushi Bar Restaurant,2905 E Skyline Dr,Tucson,AZ,85718,32.325494621,-110.9288778968,3,468
YSJZZ1_8uHIIV4w44RSllA,Flying Pie Pizzaria,601 S Main St,Meridian,ID,83642,43.598946,-116.3929,3,160
pmuuoDqNZp7518AUd-YmPA,Bagelicious - King Of Prussia,216 W Beidler Rd,King of Prussia,PA,19406,40.1124813,-75.3799748,3.5,60
kCzWbUG8M13F06DG80YqDA,Tia's Tex Mex,2815 E Fowler Ave,Tampa,FL,33612,28.0537533,-82.427617,3,22
vLwlU-_WAZfC-6VIdIK12w,Queen's Pizza,3436 Tampa Rd,Palm Harbor,FL,34684,28.0666468,-82.7205727,3,45
z6HgTWokZSpvsMhqukUCow,Beachwood Seafood Kitchen & Bar,4022 Tampa Rd,Oldsmar,FL,34677,28.0352545,-82.6550287,4,169
pCn8Bz3IdFyUOyDQky7t5Q,Chick-A-Boom,1946 Delmar Dr,Folcroft,PA,19032,39.8903098,-75.2851259,4.5,20
3Kj0DlqXWTGqi6GUsM0Nfg,El Rancho Mexican Grill,10128 US Hwy 19,Port Richey,FL,34668,28.2867431,-82.7152898,2.5,9
dtOiL5peZcmq0XU3HOdHVw,Kurry Shack,6 N 3rd St,Philadelphia,PA,19106,39.9504385693,-75.1457622327,4.5,7
KdompboZOJTzBbbsirjm8g,Taco Bell,1850 Memorial Lane,Wood River,IL,62095,38.86687,-90.06788,2,10
_7g89aWLTv3kS5xsNcX8Gw,China One,4316 6th St S,Saint Petersburg,FL,33705,27.7293412,-82.6390185,3.5,9
kQoIYrwicWVN4ASBVGXJKw,PrimoHoagies,904 Chester Pike,Prospect Park,PA,19076,39.8810393,-75.3083955,2.5,21
3-JrimUGgzBVCR4bex_89g,Los Patios,50 Old Farm Rd,Danville,IN,46122,39.761933,-86.498805,4,34
9MdAr_MK8YUzYsEHMf1QeA,Lenora's Grill,6514 Congress Dr,New Orleans,LA,70126,30.026925,-90.038283,4,33
dw-nDDdR7ZpmcHAi_IHU1Q,Bellshire Pizza,3801 Dickerson Pike,Nashville,TN,37207,36.263441,-86.7568469,3,9
lhH2g-fhamdl2UATZiguaA,Sicilian Pizza and Pasta,493 Old Hickory Blvd,Brentwood,TN,37027,36.0397849,-86.7466428,3.5,113
kMWnmOpMoUk-ZSBtHuHnUg,El Paisano Taqueria y Pupuseria,1901 Silverada Blvd,Sparks,NV,89432,39.546678475,-119.7845452099,4,87
Y989Hsw30AYUMcyNjBz9iQ,Table 3,3821 Green Hills Village Dr,Nashville,TN,37215,36.108286623,-86.8167511214,3.5,247
8yR12PNSMo6FBYx1u5KPlw,Bru Burger Bar - Indianapolis,410 Massachusetts Ave,Indianapolis,IN,46204,39.7733071672,-86.1520911055,4,1608
iq-ST5E57wVE2pMj_Y3UBw,Hardee's,1001 N US Hwy 31,New Whiteland,IN,46184,39.5649494904,-86.0919879883,2,8
3XjwPkcbuhssRwZKnoYOyQ,The Pan,18 E Cota St,Santa Barbara,CA,93101,34.4181488562,-119.6962135916,4,21
gFTSj8FafhI-LTVMsBrT5g,Cove Sushi,2080 Mill St,Reno,NV,89502,39.52061,-119.78631,5,65
tP1x4ntwlFfQBI1ozbBinw,Britt's Coal Fire Pizza,10709 Gulf Blvd,Treasure Island,FL,33706,27.769736,-82.769149,4,368
QMqKP01SpDXesh7xYUO5Cg,Taco Lindo,525 Beckett Rd,Logan Township,NJ,08085,39.7597368219,-75.3546782332,3.5,53
5JPUBSz8qpY1emBSRVNFqA,Applebee's Grill + Bar,1921 Vaughn Rd,Wood River,IL,62095,38.8686,-90.0648,3,17
ycbmvmBYk4w_ZmdrPL0tBQ,The Cruisery,501 State St,Santa Barbara,CA,93101,34.4167478,-119.6957697,4,362
4KbpvwrCVjL8t1g_pOUndQ,Sarku Japan,"1625 Chestnut St, Ste 205",Philadelphia,PA,19103,39.9516498,-75.1682121,3.5,23
YdsPB-Wl4CEo56qaFTTlGQ,Reed's Coffee & Tea House,3802 Lancaster Ave,Philadelphia,PA,19104,39.9601619,-75.197205,4.5,106
tXNMdlULhCAh7MQHFlSe9Q,Nico's Mexican Food,5660 E Broadway Blvd,Tucson,AZ,85711,32.2212118,-110.8711713,4,77
2CrM7eYAT_vnEQnd2zTf6Q,Hacienda Mexican Restaurant,9748 Manchester Rd,Saint Louis,MO,63119,38.6070357,-90.3719208,3,401
wrSS3bnu0u1Vh4znhbBXwA,Hookah & Cafe,4641 S Carrollton St,New Orleans,LA,70119,29.9737367,-90.1018047,3,18
Ld7wYAcFvyErl_RfLc-uiA,Laxmi's Indian Grille-East Falls,3492 Tilden St,Philadelphia,PA,19129,40.0128847,-75.1901845,3.5,68
bi8cQT77t7hOlKbB7diCPg,Tiffin - Mount Airy,7105 Emlen St,Philadelphia,PA,19119,40.0530319,-75.1956803,3,176
At7iebut3p14ElmaVBLa0g,Squatters Cafe,3524 Washington Ave,St. Louis,MO,63103,38.6384348,-90.2304676,4.5,37
VKBuUNM_9TGvle-Agq-bjg,Regrub,8219 104 Street NW,Edmonton,AB,T6E 4E7,53.5185015099,-113.497550413,3,48
PWGcA2s9sf4iMb4dcLz6Hg,Goodwood Barbecue Company,1140 N Eagle Rd,Meridian,ID,83642,43.614798922,-116.3538427483,4,247
VkYWtMq_l-YCkZYSKeDYAQ,Randy's Tu Your Door Pizza,8602 Southeastern Ave,Indianapolis,IN,46239,39.7070166,-86.0136593,3.5,18
EVmCBFlY0Hy_62bDRizmGA,Sushi Alive Asian Bistro & Raw,13234 Race Track Rd,Tampa,FL,33626,28.07202,-82.630403,3.5,344
ui4DEABUCuaDMY7RPXGgWA,O'Charley's Restaurant & Bar,100 Eastpark Dr,Brentwood,TN,37027,36.036933,-86.790347,2.5,76
w0g9q4BC-OFdByt-AYePNQ,Chiang Mai Thai & Sushi Bar,415 Cleveland St,Clearwater,FL,33755,27.965343,-82.800563,3.5,92
QMSevKu2-czkn3KjkvQOsw,Popeyes Louisiana Kitchen,2311 Cottman Ave,Philadelphia,PA,19149,40.0478979468,-75.0584631691,2,12
7i4aw4ICQ_l8V-GM_PjnuQ,JJ's Market & Delicatessen,10535 Gandy Blvd N,St. Petersburg,FL,33702,27.86742,-82.6275577,4.5,167
yezrPF5W9KBm-JI9ZeudNg,Black Olive,7122 Germantown Ave,Philadelphia,PA,19119,40.058735,-75.190115,3.5,8
avB60OOVc_YOyfbz2AqL_g,Cafe Michelangelo,11901 Bustleton Ave,Philadelphia,PA,19116,40.1214268,-75.0160069,3.5,127
VEsJqjwNm5jb6xN8BGTn5Q,Two Street Pizza,1616 S 2nd St,Philadelphia,PA,19148,39.9274627,-75.1489763,3,13
csfq_i-3HcyBFt50JK344g,The Bread Artisans,6925 4th St N,Saintt Petersburg,FL,33702,27.8351365,-82.6383432,4.5,11
VENBnW8AF4jYTBbekO8X2A,Bucks County Biscotti,10 W Creamery Rd,Hilltown,PA,18927,40.3419656,-75.2573173,5,13
UI0Rcdl9x_GT8ZnIQS80SA,Hard Rock Cafe,"1820 Market St, Ste 450",Saint Louis,MO,63103,38.6276089538,-90.2082054107,2.5,130
xTgXmtYAoH2YqHqkqdD5xw,Marco's Pizza,7119 Whitestown Pkwy,Zionsville,IN,46077,39.9490846421,-86.33378,3.5,9
MaaDRJZKSUTAJeF6OTQRnA,J's Pitaria,91 Concord Plaza Shopping Ctr,Sappington,MO,63128,38.5252653,-90.3634277,5,68
d96BqloOdv1Zpzj8tXfbug,Fury's Restaurant,724 Martin Behrman Ave,Metairie,LA,70005,30.0029371,-90.1314011,4,52
-oLSzuQLu6ZNb7sHYbdiVQ,Clear Sky Club Haus,36355 E Lake Rd S,Palm Harbor,FL,34685,28.1028475786,-82.6935461,4.5,36
t3yrFZ2bCBhWrY8c1zM9CQ,Sto's Bar & Restaurant,236 Market St,Philadelphia,PA,19106,39.9500081317,-75.1446980851,3.5,119
YZp9amy4p5qbmPpClVfBhw,Fannie Mae's,319 Peabody St,Nashville,TN,37210,36.1559008,-86.7736471,4.5,10
QRFyr9cr02CsCCqTBsHTyQ,Saladworks,443 S Broad St,Lansdale,PA,19446,40.2355089553,-75.2886156251,2.5,32
HdQ7SLW9HuIuHAtcgVKogA,Slider Station,,Indianapolis,IN,46222,39.8070137,-86.2260131,3.5,7
ImeZuwzKRrRGh8VMXOENYQ,Pauly's Bar Room,130 E Idaho Ave,Meridian,ID,83642,43.6113039,-116.39061,4.5,32
97SR7RQPL02t5J41UcZ4SQ,Pat's Pizzeria,12317 Academy Rd,Philadelphia,PA,19154,40.0956114102,-74.9752556973,2.5,43
-kVGt2QRNtBoZMvKeIjVug,TGI Fridays,10367 US Hwy 36,Avon,IN,46123,39.7630894588,-86.3391373937,2.5,7
VlU01R6Q9NvjM4DEMqys9Q,Bistro 215,3821 Green Hills Village Dr,Nashville,TN,37215,36.1082828,-86.8166166,4,6
QFh-h_OZ5Io-mBk32HN28A,Kyle's Kitchen,791 Chapala St,Santa Barbara,CA,93101,34.4182687,-119.7005116,4,638
tNOLXgYTykXmLaAZnvo1vg,Chipotle Mexican Grill,241 N Pottstown Pike,Exton,PA,19341,40.0326690472,-75.6303525514,2,115
giDsHBlGhHwqNZkmOV9aYQ,Philly Tap & Tavern,777 Harrahs Blvd,Chester,PA,19013,39.8503328,-75.3495986,2.5,17
SILyZPUbnekA3ixsnjkOVA,Adriano's Rosie's Cafe,2745 E Bay Dr,Largo,FL,33771,27.9161751,-82.7585918,4,9
hp6iyOf4yHAELQ_sjCD5Ew,Independence Prime,"Philadelphia International Airport - 8000 Essington Ave, Terminal B",Philadelphia,PA,19155,39.8745568189,-75.2437496274,3.5,108
-KgOEg5ptVVJBSvhHXXkBw,Porch & Patio,512 Williams Blvd,Kenner,LA,70062,29.9756773,-90.2456869,3,78
DSH4wPdivtYZHJaNGG35uw,555 Gourmet Deli,555 E City Ave,Bala Cynwyd,PA,19004,40.0095792,-75.2120731,3.5,15
7YBlH-bSO9lHQFh0IvovRw,Madhouse Sandwich Shop,"10312 Bloomingdale Ave, Ste 111",Riverview,FL,33578,27.8937644,-82.3296283,4,6
soaZ7_oU7xcphlw6gpWblg,Starbucks,1990 Cliff Dr,Santa Barbara,CA,93109,34.402329,-119.72339,3,47
oq4-qHT6EJeR81GBDq1OVg,Italian Grocery & Deli,415 E De La Guerra St,Santa Barbara,CA,93101,34.4242746,-119.6946696,4,47
6us2JBbWs_5iI0XhAiaPZQ,Vino Volo,2001 E Plumb Ln,Reno,NV,89502,39.5053914254,-119.7747091632,4,28
ULocy4QS7l6VjTq1JFUtGw,Cabana Alcohol Infused,"483 Mandalay Ave, Ste 113",Clearwater,FL,33767,27.9814984,-82.8267403,4,8
ndUuRwcL2wYBOXXgLTJyEQ,Sabrosa Taqueria,34 E State St,Doylestown,PA,18901,40.3103604831,-75.1296019248,4,48
8DgydGfkCYt2aGpbVMmhNQ,Florentino's Restaurant,18 S State St,Newtown,PA,18940,40.228726,-74.9370243,4,65
cVxrVYs8DmKRIpXGyA0IXg,No 1 Chinese,"320 Beverly Rancocas Rd, 3E",Willingboro,NJ,08046,40.0272444849,-74.908176139,2.5,8
xg2v-Lf39AVEo4we0dnbtA,Richard's Nashville Cafe,495 B Myatt Dr,Nashville,TN,37115,36.278768,-86.690167,4.5,6
qJJLLFMHRt-MTOgSfJCbMA,Penn Station East Coast Subs,7321 S Lindbergh Blvd,Saint Louis,MO,63125,38.5071541,-90.3272562,2.5,15
xKrCs0OzpoUlWHYW7Ip6qQ,Sonic Drive-In,208 B Wilson Pike Cir,Brentwood,TN,37027,36.0325194211,-86.7848017644,2.5,31
eGgYses6equ9ZOHj6lYmXA,Panera Bread,"1075 W Baltimore Pike, Ste A",Media,PA,19063,39.914468,-75.432371,2,40
rJ7tOENZBJMJnkmYCf9XlQ,Pure Poke and Prep,6501 E Grant Rd,Tucson,AZ,85715,32.2503796,-110.8517994,4.5,53
dkEgU5UNNed9Rhn91Whuhw,Sunny Side Up Cafe,15800 N Oracle Rd,Tucson,AZ,85739,32.4928879,-110.9245478,3.5,115
ExmUG-RZ0hZ4R4O_Hc2lIw,Redline Sports Grill,445 W Wetmore Rd,Tucson,AZ,85705,32.2864611,-110.9790324,2.5,41
f36jIMUlIJkyO9GYeKVnYg,Maggie's Breakfast & Lunch,271 Wonder St,Reno,NV,89502,39.5139863,-119.80351,4.5,252
wsa8svEwFjZR2sL_S36yGQ,Uncle Maddio's Pizza,5226 4th St N,Saint Petersburg,FL,33703,27.8195500664,-82.6391446211,3.5,54
-78Va3llKcPbL6SW4is8lw,Mungo's Italian Eatery,100 East Main St,Collinsville,IL,62234,38.669906,-89.985827,4,124
O91-SXmohStDJxxUChYENQ,My Kitchen,18215 US 41 Service Rd,Lutz,FL,33549,28.1384907212,-82.4625825021,4,9
fVkyuNElYY3AO4a3SxchCg,Wawa,2 N White Horse Pike,Somerdale,NJ,08083,39.844732,-75.018181,4,5
lC9loud_H6q7WtPxJaMwkg,Simply Southern Soul Food,"2940 E 38th St, Ste F",Indianapolis,IN,46218,39.8263933,-86.1127717,3,23
tSfeCQ9uasc5hlPu5gjGhA,Dunkin',145 Haddon Ave,Westmont,NJ,08108,39.9105125,-75.048741,3,10
VvFWzuSPdkjMQ7h7071HmQ,Yo So Delicious Frozen Yogurt Bar,"401 S Mount Juliet Rd, Ste 205",Mount Juliet,TN,37122,36.1687288,-86.5102731,2.5,12
PKJAdcPV2MA-_chPVNmhYg,Gus Balons Restaurant,6027 E 22nd St,Tucson,AZ,85711,32.2074124,-110.864745,4,160
Pva2qcB9f3xXqN58M_3ugw,CiCi's Pizza,818 Haddonfield Rd,Cherry Hill,NJ,08002,39.927421,-75.031904,2.5,12
mNWHsi3VipOX9voWrSC5ew,The Havana Room,1031 Germantown Ave,Philadelphia,PA,19123,39.9664073,-75.1386733,3,17
Jdmm7EwLJT-H0uBJrAEBEg,Big Bob's Smoke' n Racks BBQ,2591 Haddonfield Rd,Pennsauken,NJ,08110,39.973688,-75.02286,4,12
8gV3YUl8uqHnA-wZ3UZ5Dg,Smashburger,"5 Morehall Rd, Ste 400",Malvern,PA,19355,40.0451177133,-75.5224183808,2.5,77
jrNAkn21Tjq3n9v2n3m46g,Grapes Real Jamaican Cuisine,2302 N Market St,Wilmington,DE,19802,39.7532499594,-75.5384308056,4,11
rL68WmPRYvmSjRaQUoKwkQ,Social Gastropub,2 157 Center,Edwardsville,IL,62025,38.7848922,-89.9791545,3.5,131
ND4gZUqNUWEuk8uZfjvGmg,Steaming Goat,,Nashville,TN,37211,36.0775432,-86.7315785,4.5,28
ql_-U6RfqR4hbyZfSIZECQ,Canyon Cafe,7000 N Resort Dr,Tucson,AZ,85750,32.3277468971,-110.8505575337,4,54
luLb4UfSqAUgRVP2b_GtZw,Ruby Tuesday,279 Franklin Road,Brentwood,TN,37027,36.0296904235,-86.7921246548,3,25
0OJ6J4AoqpxjwQPp159lcg,Pisces Sushi and Global Bistro,799 Highland Ave,Dunedin,FL,34698,28.0123507,-82.7856687,4.5,528
JeoIxdzt5E3QXT1KHXR2oA,JB'S Island Cafe,432 Poinsettia Ave,Clearwater,FL,33767,27.9796975,-82.8266376,4,37
v-ZuFrAxO76Pul-enLJiKg,Cali Burger,8302 W Hillsborough Ave,Tampa,FL,33634,27.995386,-82.576803,2.5,20
Z8Um48e4l5TBcwKmIW3QFw,Lotus Thai Cafe,"2104 Manhattan Blvd, Ste E",Harvey,LA,70058,29.8831036,-90.0536145,5,7
5XXA19RlOynrM6-103s-Zg,Kota Wood Fire Grill,522 N Grand Blvd,Saint Louis,MO,63103,38.6386839,-90.2316472,3,62
lZG8eUJwuZA71pU-6eK2WQ,Burger King,580 W St Rd,Warminster,PA,18974,40.2046977601,-75.0971719623,2,7
mbiZ_pjxsNQp0bHG7BMp3Q,Jakers Bar and Grill,3268 E Pine Ave,Meridian,ID,83642,43.6135354139,-116.3522610108,3.5,186
12Gc4OFQ-WAW0fAk2hRZuQ,Kin Bakeshop,3404 State St,Santa Barbara,CA,93105,34.4406266,-119.7367796,5,25
p08guKw-66hwQTiskaAYiA,615 Waffles,"1100 Fatherland St, Ste 102",Nashville,TN,37206,36.1739359,-86.750126,5,5
J0joPXxmN-_9Lzafspqdbw,Peg's Glorified Ham N Eggs,420 S Sierra St,Reno,NV,89501,39.5209988094,-119.8120761196,4.5,2506
SDV-haafzhoRqW9d_7LQHQ,Smiling Buddha,5544 Telegraph Rd,Saint Louis,MO,63129,38.4708367,-90.3037756,4.5,75
cdIZWzfLzU8AAnS0rWQXdw,The Waterwheel,4424 Old Easton Rd,Doylestown,PA,18901,40.3418866,-75.1255442,4,35
-H5v2-mADBj8_n2yeACjLA,WOW Cafe and Bar,"900 Airline Dr, Concourse D, Louis Armstrong New Orleans International Airport",Kenner,LA,70062,29.9855683265,-90.2561187744,2,116
KuKZc8RDUJdNCbYRQjkFEg,The Ketogenic Reset - Nutrition Lifestyle Coaching,"233 W State St, Ste A",Eagle,ID,83616,43.6946265,-116.3570733,5,15
r1zaqHAYnfoeEwOR2DA_Pw,Bleu Soul Fine Dining,6339 Germantown Ave,Philadelphia,PA,19144,40.0446837,-75.1814304,2,8
n_kAyrRnu5UApY2jfAhvvw,Cheese Shack,6043 2nd St,Kimmswick,MO,63052,38.3660126,-90.3640598,3.5,9
sIgFetlP6tX1vYWYjkyq1w,McDonald's,301 Veterans Hwy,Metairie,LA,70005,30.0012184272,-90.1260017558,1.5,53
Y1il7un36AYb_1ZU8AzUSQ,Far East Descendant,251 N Clarion St,Philadelphia,PA,19107,39.957109757,-75.1608705747,4.5,10
p7skNVy_2fV6RCAJK0yO5g,Mikado Thai Pepper Restaurant,64-66 E Lancaster Ave,Ardmore,PA,19003,40.0065511,-75.2888395,3.5,183
Eqi8jrVowPBlCKAInDfFRw,The Natural Cafe,5892 Hollister Ave,Goleta,CA,93117,34.436222,-119.828913,4,122
XsOA40TEukonpCXJFkZ-7A,Trenton Bagel Shop & Deli,17 S Broad St,Trenton,NJ,08610,40.219471,-74.764447,3,9
Su0N7Lv_8AiV8xaV81WrVg,Country Deli,1176 N Middletown Rd,Media,PA,19063,39.9384622597,-75.4591704758,4.5,51
SYIGuB9-5JmL1TEvHuf2og,Aviators Tavern,3535 Ulmerton Rd,Clearwater,FL,33762,27.89519,-82.682498,3.5,32
fkS2ADZEEuIwyhWHaA7Nag,China Wok,335 W Main St,Gallatin,TN,37066,36.3855802423,-86.4529499039,3,14
pJ230wD80EGG7qmAfIL7Fw,Koz's,6215 Wilson St,Harahan,LA,70123,29.9434362,-90.1985516,4.5,47
DB6Sqx34jXsJ3aNg21UkeA,Chulas Mexican Grill,11061 Spring Hill Dr,Spring Hill,FL,34608,28.4617699,-82.541448,3.5,151
0reG29yOG8de0y2lGYvP2w,Cousins Maine Lobster - Trenton & Philadelphia,,Trenton,NJ,08601,40.22,-74.74,4,67
QyWxTsVvvqSEpU1KNblRbQ,Say Cheese,,Philadelphia,PA,19104,39.9613329598,-75.1550674438,4,34
9W3D9BB5GSZiKeA1rYg-6Q,China Wok,5317 W 10th St,Indianapolis,IN,46224,39.7793321,-86.2513928,3,21
t4tEL8wPaWoS5WcuilIrxA,Black Eye Take Out,1006 Virginia Ave,Indianapolis,IN,46203,39.7539457,-86.1414386,3.5,23
N3bjowmk_Yi9rUxPpM2k6Q,The Store,814 Gravier St,New Orleans,LA,70112,29.951985,-90.0717354,4,141
mEy4xGKfOqMa3q4nWSM0jA,Silver Ring,7419 US Hwy 301 S,Riverview,FL,33578,27.875132,-82.327788,4.5,27
QVDdV_NeGwLho6qtBYtjuQ,Local Harvest Cafe & Catering Downtown,"815 Olive St, Ste 150",Saint Louis,MO,63101,38.629104,-90.192797,3.5,31
4epLIQS0--TnFgAQOtaIww,Taco Bell,13917 W. Hillsborough Ave,Tampa,FL,33635,28.033664,-82.646985,2,30
Bu5sh0AVuv5qTpH7pm7wuA,Katie's Meat and Three,10 Arcade,Nashville,TN,37203,36.1643251362,-86.7796141528,4,8
-0FX23yAacC4bbLaGPvyxw,The Grey Stone Fine Food and Spirits,552 Washington Crossing Rd,Newtown,PA,18940,40.2560822087,-74.9169758062,3.5,155
OYR0WgpndrJRumX8d8HoXQ,Cup It Up American Grill,"1101 N Wilmot Rd, Ste 119",Tucson,AZ,85712,32.2369809563,-110.858966881,4.5,62
pFoBM2CKL6PORYUplVvuFA,Panera Bread,"782 Old Hickory Blvd, Ste 121",Brentwood,TN,37027,36.0418404412,-86.7801091115,2.5,96
XjP59zAbiCF_unzOZBkAXw,P&S Ravioli Company,511 Black Horse Pike,Haddon Heights,NJ,08035,39.875608,-75.083265,3.5,6
fKAxmycMFwO9qWVUAOQzOw,G's Pizza,4840 Bienville St,New Orleans,LA,70119,29.981451,-90.10724,4,292
2YnQAJdeFrcgPa8MqIYcDg,Cody's Cafe,4898 Hollister Ave,Santa Barbara,CA,93111,34.4366192418,-119.7917363642,3.5,294
PjgQhtDdLHMR36l5yQ5TQg,Chili's,1820 Gallatin Pike N,Madison,TN,37115,36.29977,-86.697398,2.5,37
HZ0ngmj2brBWqQmXBW827Q,Peace A Pizza,"143 S Gulph Rd, Ste 149",King of Prussia,PA,19406,40.083925,-75.387579,2.5,35
XgmqH4xTI7MNyANg_AFjOw,Lil Cee's,605 Douglas Ave,Nashville,TN,37207,36.1940873,-86.7597461,4,18
K_i5fnNv0NH_Wwy6W2tEAg,Country Pride Restaurant,5930 East State Road 334,Whitestown,IN,46075,39.9477803,-86.3569821,3,5
Ks4r6DEqSbV8D2qc04RhTA,Mission BBQ,5602 W Waters Ave,Tampa,FL,33634,28.0251634,-82.5379472,4.5,344
z1G0VhnbKg83MT6wVrd_pQ,Pizza Shack Italian Grille,11963 Indian Rocks Rd,Largo,FL,33774,27.8823804,-82.831938,3.5,86
Zs5pX3kgUgq8-uZkuBm7yA,Bono's Real Chicago Food,"6700 N Linder Rd, Ste 192",Meridian,ID,83646,43.6653612,-116.4136547,2,94
4zK5zmIqQxeDgetjoRmkrQ,Brotherly Grub,7135 Germantown Ave,Philadelphia,PA,19119,40.0594149,-75.1901908,4,22
EQr26hrk8cEYsZjaMVU57g,Kegler's,3031 New Castle Ave,New Castle,DE,19720,39.70217,-75.552927,4,8
zgaaJ6jAhKpWCtQRryJfVQ,Devito's Pizza IV,124 Tremont St,Trenton,NJ,08611,40.2037482,-74.7502687,4,5
yksAB6aQXfNRrZM0jTxyOA,Yardley Inn Restaurant & Bar,82 E Afton Ave,Yardley,PA,19067,40.244897,-74.836648,4,275
DvkHkIxkBhL9dARX5XpsHw,Big Cheez Ristorante & Pizzaria,1661 Blackwood Clement Rd,Blackwood,NJ,08012,39.8030554551,-75.0522316582,3,24
ccWfM9qEtAnHDXwv8yzUXw,BarRio Taco & Tequila Bar,3855 E 96th St,Indianapolis,IN,46240,39.9256529,-86.100436,2.5,28
y_iKWRZuUKFJFldrrP8XPg,Bambino Pizza,2028 Bayshore Blvd,Dunedin,FL,34698,28.0387331,-82.7845755,3,29
bPGzgqDIbFAhSLo4GAT-Kw,Sea Hags Bar and Grill,9555 Blind Pass Rd,St. Pete Beach,FL,33706,27.7572395841,-82.7602286441,4,370
l13B2broZhTkhKZRRS87OA,"George's Burgers, Steaks and Shakes",1817 Cottman Ave,Philadelphia,PA,19111,40.0377140603,-75.0387135521,3,38
MtzzWMHEPQERkaNAd13eYQ,Junction,3021 St Claude,New Orleans,LA,70117,29.9681242,-90.0453847,3.5,184
P4xcncDtp6dr8ziqHd-mBw,La Voglia Italian Restaurant,216 W Street Rd,Warminster,PA,18974,40.1988199152,-75.0870982404,4.5,68
3ovV2S7XEAOEk8hCdYKhOA,Hi-Pointe Drive-In,1033 McCausland Ave,St Louis,MO,63117,38.632134,-90.305623,4,716
NyqI81Wx_d16I357OSLQ1Q,Burger Bar,3334 Federal St,Camden,NJ,08105,39.947498,-75.074549,4.5,36
aDubxij7hk7abn9i7QDlng,The Tampa Buffet,3904 S Dale Mabry Hwy,Tampa,FL,33611,27.9064375,-82.5042108,2.5,87
wLV_IZfy6nrNbplZ5sHJKQ,Mellow Mushroom - Nashville-Vanderbilt,212 21st Ave S,Nashville,TN,37203,36.1475075,-86.7990809629,3.5,264
6aqe87Bv8ns-RVK5Evmrow,Cheeseburger Charley's,2048 Metrocenter Blvd,Nashville,TN,37228,36.1847599,-86.7982455,2.5,5
PPkb4w5MRlDCVGH2GqlcyQ,Perch Bakery Cafe,653 Downingtown Pike,West Chester,PA,19380,39.96158,-75.6211074,4,16
2LSVbGkyFSVflCbjWyVrhg,Mewsic Kitty Cafe,2519 Nolensville Pike,Nashville,TN,37211,36.1177593,-86.7489603,4.5,23
K0Cw8KXgF23sEji9TnfBkA,Le Cavalier At The Green Room,42 W 11th St,Wilmington,DE,19801,39.746495,-75.54783,3.5,41
AYCStuk7tHVX9Uuw0j69LA,Koupa Espresso Bar,24 Haddon Ave,Haddon Township,NJ,08108,39.9123109747,-75.0551941534,5,24
0c9jXm3tggwKsszKFJhylw,O’bar Cafe,"1063 S State Rte 157, Ste 12",Edwardsville,IL,62025,38.7896532,-89.9804824,4,5
